[
    {
        "city" : "Plastun",
        "country" : "Russia",
        "countryCode" : "ru",
        "region" : "Primorsky Krai",
        "timezone" : "Asia/Vladivostok",
        "lat" : 44.7548106,
        "lng" : 136.3089946
    },
    {
        "city" : "Polessk",
        "country" : "Russia",
        "countryCode" : "ru",
        "region" : "Kaliningrad Oblast",
        "timezone" : "Europe/Kaliningrad",
        "lat" : 54.8614558,
        "lng" : 21.1021296
    },
    {
        "city" : "Poronaysk",
        "country" : "Russia",
        "countryCode" : "ru",
        "region" : "Sakhalin Oblast",
        "timezone" : "Asia/Magadan",
        "lat" : 49.2240307,
        "lng" : 143.0948169
    },
    {
        "city" : "Primorsk",
        "country" : "Russia",
        "countryCode" : "ru",
        "region" : "Leningrad Oblast",
        "timezone" : "Europe/Moscow",
        "lat" : 60.3584066,
        "lng" : 28.6307178
    },
    {
        "city" : "Roslyakovo",
        "country" : "Russia",
        "countryCode" : "ru",
        "region" : "Murmansk Oblast",
        "timezone" : "Europe/Moscow",
        "lat" : 69.0464493,
        "lng" : 33.2088867
    },
    {
        "city" : "Russkiy",
        "country" : "Russia",
        "countryCode" : "ru",
        "region" : "Khabarovskiy kray",
        "timezone" : "Asia/Vladivostok",
        "lat" : 48.471443,
        "lng" : 135.0608771
    },
    {
        "city" : "Sestroretsk",
        "country" : "Russia",
        "countryCode" : "ru",
        "region" : "Saint Petersburg",
        "timezone" : "Europe/Moscow",
        "lat" : 60.1014533,
        "lng" : 29.9573604
    },
    {
        "city" : "Severodvinsk",
        "country" : "Russia",
        "countryCode" : "ru",
        "region" : "Arkhangelsk Oblast",
        "timezone" : "Europe/Moscow",
        "lat" : 64.5661757,
        "lng" : 39.8505981
    },
    {
        "city" : "Shirochanka",
        "country" : "Russia",
        "countryCode" : "ru",
        "region" : "Krasnodar Krai",
        "timezone" : "Europe/Moscow",
        "lat" : 46.6569676,
        "lng" : 38.3316819
    },
    {
        "city" : "Shkotovo",
        "country" : "Russia",
        "countryCode" : "ru",
        "region" : "Primorsky Krai",
        "timezone" : "Asia/Vladivostok",
        "lat" : 43.3250688,
        "lng" : 132.3546464
    },
    {
        "city" : "Slavyanka",
        "country" : "Russia",
        "countryCode" : "ru",
        "region" : "Primorsky Krai",
        "timezone" : "Asia/Vladivostok",
        "lat" : 42.8711878,
        "lng" : 131.3784441
    },
    {
        "city" : "Snezhnogorsk",
        "country" : "Russia",
        "countryCode" : "ru",
        "region" : "Murmansk Oblast",
        "timezone" : "Europe/Moscow",
        "lat" : 69.1882343,
        "lng" : 33.2454834
    },
    {
        "city" : "Apia",
        "country" : "Samoa",
        "countryCode" : "ws",
        "region" : "Upolu",
        "timezone" : "Pacific/Apia",
        "lat" : -13.8506958,
        "lng" : -171.7513551
    },
    {
        "city" : "Adler",
        "country" : "Russia",
        "countryCode" : "ru",
        "region" : "Krasnodar Krai",
        "timezone" : "Europe/Moscow",
        "lat" : 43.4343234,
        "lng" : 39.9339462
    },
    {
        "city" : "Anadyr",
        "country" : "Russia",
        "countryCode" : "ru",
        "region" : "Chukotka Autonomous Okrug",
        "timezone" : "Asia/Anadyr",
        "lat" : 64.7336613,
        "lng" : 177.4968265
    },
    {
        "city" : "Anapa",
        "country" : "Russia",
        "countryCode" : "ru",
        "region" : "Krasnodar Krai",
        "timezone" : "Europe/Moscow",
        "lat" : 44.8857008,
        "lng" : 37.3199192
    },
    {
        "city" : "Aniva",
        "country" : "Russia",
        "countryCode" : "ru",
        "region" : "Sakhalin Oblast",
        "timezone" : "Asia/Magadan",
        "lat" : 46.7260141,
        "lng" : 142.5226178
    },
    {
        "city" : "Baltiysk",
        "country" : "Russia",
        "countryCode" : "ru",
        "region" : "Kaliningrad Oblast",
        "timezone" : "Europe/Kaliningrad",
        "lat" : 54.6591222,
        "lng" : 19.9228947
    },
    {
        "city" : "Belomorsk",
        "country" : "Russia",
        "countryCode" : "ru",
        "region" : "Republic of Karelia",
        "timezone" : "Europe/Moscow",
        "lat" : 64.5281061,
        "lng" : 34.7710761
    },
    {
        "city" : "Dagomys",
        "country" : "Russia",
        "countryCode" : "ru",
        "region" : "Krasnodar Krai",
        "timezone" : "Europe/Moscow",
        "lat" : 43.6544526,
        "lng" : 39.6546286
    },
    {
        "city" : "Divnomorskoye",
        "country" : "Russia",
        "countryCode" : "ru",
        "region" : "Krasnodar Krai",
        "timezone" : "Europe/Moscow",
        "lat" : 44.5047212,
        "lng" : 38.1300171
    },
    {
        "city" : "Dolzhanskaya",
        "country" : "Russia",
        "countryCode" : "ru",
        "region" : "Krasnodar Krai",
        "timezone" : "Europe/Moscow",
        "lat" : 46.6446145,
        "lng" : 37.8054336
    },
    {
        "city" : "Dunay",
        "country" : "Russia",
        "countryCode" : "ru",
        "region" : "Primorsky Krai",
        "timezone" : "Asia/Vladivostok",
        "lat" : 42.8852785,
        "lng" : 132.3644525
    },
    {
        "city" : "Dzhubga",
        "country" : "Russia",
        "countryCode" : "ru",
        "region" : "Krasnodar Krai",
        "timezone" : "Europe/Moscow",
        "lat" : 44.3264928,
        "lng" : 38.7015857
    },
    {
        "city" : "Gadzhiyevo",
        "country" : "Russia",
        "countryCode" : "ru",
        "region" : "Murmansk Oblast",
        "timezone" : "Europe/Moscow",
        "lat" : 69.2510157,
        "lng" : 33.3200907
    },
    {
        "city" : "Gelendzhik",
        "country" : "Russia",
        "countryCode" : "ru",
        "region" : "Krasnodar Krai",
        "timezone" : "Europe/Moscow",
        "lat" : 44.5918615,
        "lng" : 38.0241663
    },
    {
        "city" : "Kabardinka",
        "country" : "Russia",
        "countryCode" : "ru",
        "region" : "Krasnodar Krai",
        "timezone" : "Europe/Moscow",
        "lat" : 44.6488775,
        "lng" : 37.9401099
    },
    {
        "city" : "Kholmsk",
        "country" : "Russia",
        "countryCode" : "ru",
        "region" : "Sakhalin Oblast",
        "timezone" : "Asia/Magadan",
        "lat" : 47.0657403,
        "lng" : 142.0584355
    },
    {
        "city" : "Lesobirzha",
        "country" : "Russia",
        "countryCode" : "ru",
        "region" : null,
        "timezone" : "Asia/Krasnoyarsk",
        "lat" : 61.52401,
        "lng" : 105.318756
    },
    {
        "city" : "Livadiya",
        "country" : "Russia",
        "countryCode" : "ru",
        "region" : "Moscow Oblast",
        "timezone" : "Europe/Moscow",
        "lat" : 54.5296824,
        "lng" : 38.8366401
    },
    {
        "city" : "Lomonosov",
        "country" : "Russia",
        "countryCode" : "ru",
        "region" : "Saint Petersburg",
        "timezone" : "Europe/Moscow",
        "lat" : 59.9107006,
        "lng" : 29.7359614
    },
    {
        "city" : "Makarov",
        "country" : "Russia",
        "countryCode" : "ru",
        "region" : "Sakhalin Oblast",
        "timezone" : "Asia/Magadan",
        "lat" : 48.6272217,
        "lng" : 142.7782432
    },
    {
        "city" : "Mamonovo",
        "country" : "Russia",
        "countryCode" : "ru",
        "region" : "Kaliningrad Oblast",
        "timezone" : "Europe/Kaliningrad",
        "lat" : 54.4658152,
        "lng" : 19.9348453
    },
    {
        "city" : "Myskhako",
        "country" : "Russia",
        "countryCode" : "ru",
        "region" : "Krasnodar Krai",
        "timezone" : "Europe/Moscow",
        "lat" : 44.6602909,
        "lng" : 37.7480908
    },
    {
        "city" : "Nakhodka",
        "country" : "Russia",
        "countryCode" : "ru",
        "region" : "Primorsky Krai",
        "timezone" : "Asia/Vladivostok",
        "lat" : 42.8222753,
        "lng" : 132.8834039
    },
    {
        "city" : "Nakhodka",
        "country" : "Russia",
        "countryCode" : "ru",
        "region" : "Primorsky Krai",
        "timezone" : "Asia/Vladivostok",
        "lat" : 42.8222753,
        "lng" : 132.8834039
    },
    {
        "city" : "Nevel'sk",
        "country" : "Russia",
        "countryCode" : "ru",
        "region" : "Sakhalin Oblast",
        "timezone" : "Asia/Magadan",
        "lat" : 46.678613,
        "lng" : 141.8559579
    },
    {
        "city" : "Nogliki",
        "country" : "Russia",
        "countryCode" : "ru",
        "region" : "Sakhalin Oblast",
        "timezone" : "Asia/Magadan",
        "lat" : 51.792042,
        "lng" : 143.1400388
    },
    {
        "city" : "Novorossiysk",
        "country" : "Russia",
        "countryCode" : "ru",
        "region" : "Krasnodar Krai",
        "timezone" : "Europe/Moscow",
        "lat" : 44.7154014,
        "lng" : 37.7619669
    },
    {
        "city" : "Okha",
        "country" : "Russia",
        "countryCode" : "ru",
        "region" : "Sakhalin Oblast",
        "timezone" : "Asia/Magadan",
        "lat" : 53.577557,
        "lng" : 142.9424741
    },
    {
        "city" : "Okhotsk",
        "country" : "Russia",
        "countryCode" : "ru",
        "region" : "Khabarovsk Krai",
        "timezone" : "Asia/Vladivostok",
        "lat" : 59.35846,
        "lng" : 143.2034909
    },
    {
        "city" : "Ola",
        "country" : "Russia",
        "countryCode" : "ru",
        "region" : "Magadan Oblast",
        "timezone" : "Asia/Magadan",
        "lat" : 59.5818476,
        "lng" : 151.2885614
    },
    {
        "city" : "Onega",
        "country" : "Russia",
        "countryCode" : "ru",
        "region" : "Arkhangelsk Oblast",
        "timezone" : "Europe/Moscow",
        "lat" : 63.917408,
        "lng" : 38.1141079
    },
    {
        "city" : "Petrodvorets",
        "country" : "Russia",
        "countryCode" : "ru",
        "region" : "Saint Petersburg",
        "timezone" : "Europe/Moscow",
        "lat" : 59.8845003,
        "lng" : 29.8851757
    },
    {
        "city" : "Dakar",
        "country" : "Senegal",
        "countryCode" : "sn",
        "region" : "Dakar Region",
        "timezone" : "Africa/Dakar",
        "lat" : 14.716677,
        "lng" : -17.4676861
    },
    {
        "city" : "Djogue",
        "country" : "Senegal",
        "countryCode" : "sn",
        "region" : "Ziguinchor",
        "timezone" : "Africa/Dakar",
        "lat" : 12.6,
        "lng" : -16.75
    },
    {
        "city" : "Grand Dakar",
        "country" : "Senegal",
        "countryCode" : "sn",
        "region" : "Dakar Region",
        "timezone" : "Africa/Dakar",
        "lat" : 14.699931,
        "lng" : -17.4539407
    },
    {
        "city" : "Kayar",
        "country" : "Senegal",
        "countryCode" : "sn",
        "region" : "Thiès Region",
        "timezone" : "Africa/Dakar",
        "lat" : 14.9165428,
        "lng" : -17.1203909
    },
    {
        "city" : "Pikine",
        "country" : "Senegal",
        "countryCode" : "sn",
        "region" : "Dakar Region",
        "timezone" : "Africa/Dakar",
        "lat" : 14.7589446,
        "lng" : -17.3937536
    },
    {
        "city" : "Zinqunichor",
        "country" : "Senegal",
        "countryCode" : "sn",
        "region" : "Ziguinchor",
        "timezone" : "Africa/Dakar",
        "lat" : 12.5641479,
        "lng" : -16.2639825
    },
    {
        "city" : "Baniyas",
        "country" : "Syria",
        "countryCode" : "sy",
        "region" : "Tartus Governorate",
        "timezone" : "Asia/Damascus",
        "lat" : 35.1852624,
        "lng" : 35.9533322
    },
    {
        "city" : "Jablah",
        "country" : "Syria",
        "countryCode" : "sy",
        "region" : "Latakia Governorate",
        "timezone" : "Asia/Damascus",
        "lat" : 35.368795,
        "lng" : 35.9206549
    },
    {
        "city" : "Lattakia",
        "country" : "Syria",
        "countryCode" : "sy",
        "region" : "Latakia Governorate",
        "timezone" : "Asia/Damascus",
        "lat" : 35.5407103,
        "lng" : 35.7952667
    },
    {
        "city" : "Tartous",
        "country" : "Syria",
        "countryCode" : "sy",
        "region" : "Tartus Governorate",
        "timezone" : "Asia/Damascus",
        "lat" : 34.8959276,
        "lng" : 35.8866517
    },
    {
        "city" : "Dili",
        "country" : "East Timor",
        "countryCode" : "tl",
        "region" : "Dili",
        "timezone" : "Asia/Dili",
        "lat" : -8.5568557,
        "lng" : 125.5603143
    },
    {
        "city" : "Carmelo",
        "country" : "Uruguay",
        "countryCode" : "uy",
        "region" : "Colonia Department",
        "timezone" : "America/Montevideo",
        "lat" : -33.9953859,
        "lng" : -58.2861542
    },
    {
        "city" : "Can Gio",
        "country" : "Vietnam",
        "countryCode" : "vn",
        "region" : "Ho Chi Minh City",
        "timezone" : "Asia/Saigon",
        "lat" : 10.5083266,
        "lng" : 106.8635004
    },
    {
        "city" : "Da Nang",
        "country" : "Vietnam",
        "countryCode" : "vn",
        "region" : "Da Nang",
        "timezone" : "Asia/Saigon",
        "lat" : 16.0544068,
        "lng" : 108.2021667
    },
    {
        "city" : "Do Son",
        "country" : "Vietnam",
        "countryCode" : "vn",
        "region" : "Hai Phong",
        "timezone" : "Asia/Saigon",
        "lat" : 20.7247533,
        "lng" : 106.7742534
    },
    {
        "city" : "Dong Hoi",
        "country" : "Vietnam",
        "countryCode" : "vn",
        "region" : "Quang Binh Province",
        "timezone" : "Asia/Saigon",
        "lat" : 17.4659391,
        "lng" : 106.5983958
    },
    {
        "city" : "Ha Tien",
        "country" : "Vietnam",
        "countryCode" : "vn",
        "region" : "Kien Giang",
        "timezone" : "Asia/Saigon",
        "lat" : 10.381909,
        "lng" : 104.4901728
    },
    {
        "city" : "Haiphong",
        "country" : "Vietnam",
        "countryCode" : "vn",
        "region" : "Hai Phong",
        "timezone" : "Asia/Saigon",
        "lat" : 20.8449115,
        "lng" : 106.6880841
    },
    {
        "city" : "Hoi An",
        "country" : "Vietnam",
        "countryCode" : "vn",
        "region" : "Quang Nam Province",
        "timezone" : "Asia/Saigon",
        "lat" : 15.8800584,
        "lng" : 108.3380469
    },
    {
        "city" : "Hon Nieu",
        "country" : "Vietnam",
        "countryCode" : "vn",
        "region" : null,
        "timezone" : "Asia/Saigon",
        "lat" : 18.8,
        "lng" : 105.7833333
    },
    {
        "city" : "Hongay",
        "country" : "Vietnam",
        "countryCode" : "vn",
        "region" : "Quảng Ninh",
        "timezone" : "Asia/Saigon",
        "lat" : 20.9711977,
        "lng" : 107.0448069
    },
    {
        "city" : "Nhatrang",
        "country" : "Vietnam",
        "countryCode" : "vn",
        "region" : "Khanh Hoa Province",
        "timezone" : "Asia/Saigon",
        "lat" : 12.2387911,
        "lng" : 109.1967488
    },
    {
        "city" : "Quy Nhon",
        "country" : "Vietnam",
        "countryCode" : "vn",
        "region" : "Binh Dinh Province",
        "timezone" : "Asia/Saigon",
        "lat" : 13.7829673,
        "lng" : 109.2196634
    },
    {
        "city" : "Song Cau",
        "country" : "Vietnam",
        "countryCode" : "vn",
        "region" : "Phú Yên Province",
        "timezone" : "Asia/Saigon",
        "lat" : 13.5809065,
        "lng" : 109.1991932
    },
    {
        "city" : "Tuy Hoa",
        "country" : "Vietnam",
        "countryCode" : "vn",
        "region" : "Phú Yên Province",
        "timezone" : "Asia/Saigon",
        "lat" : 13.1057062,
        "lng" : 109.295048
    },
    {
        "city" : "Acoua",
        "country" : "Mayotte",
        "countryCode" : "yt",
        "region" : "Acoua",
        "timezone" : "Indian/Mayotte",
        "lat" : -12.7228823,
        "lng" : 45.0594885
    },
    {
        "city" : "Bandraboua",
        "country" : "Mayotte",
        "countryCode" : "yt",
        "region" : "Bandraboua",
        "timezone" : "Indian/Mayotte",
        "lat" : -12.7034213,
        "lng" : 45.1225604
    },
    {
        "city" : "Bandrele",
        "country" : "Mayotte",
        "countryCode" : "yt",
        "region" : "Bandrele",
        "timezone" : "Indian/Mayotte",
        "lat" : -12.913605,
        "lng" : 45.1939121
    },
    {
        "city" : "Boueni",
        "country" : "Mayotte",
        "countryCode" : "yt",
        "region" : "Boueni",
        "timezone" : "Indian/Mayotte",
        "lat" : -12.9099576,
        "lng" : 45.0805029
    },
    {
        "city" : "Chiconi",
        "country" : "Mayotte",
        "countryCode" : "yt",
        "region" : "Chiconi",
        "timezone" : "Indian/Mayotte",
        "lat" : -12.8303302,
        "lng" : 45.1143795
    },
    {
        "city" : "Chirongui",
        "country" : "Mayotte",
        "countryCode" : "yt",
        "region" : "Chirongui",
        "timezone" : "Indian/Mayotte",
        "lat" : -12.9339923,
        "lng" : 45.15062
    },
    {
        "city" : "Koungou",
        "country" : "Mayotte",
        "countryCode" : "yt",
        "region" : "Koungou",
        "timezone" : "Indian/Mayotte",
        "lat" : -12.7368055,
        "lng" : 45.2067905
    },
    {
        "city" : "Mtsamboro",
        "country" : "Mayotte",
        "countryCode" : "yt",
        "region" : "Mtsamboro",
        "timezone" : "Indian/Mayotte",
        "lat" : -12.7007221,
        "lng" : 45.068827
    },
    {
        "city" : "Sada",
        "country" : "Mayotte",
        "countryCode" : "yt",
        "region" : "Sada",
        "timezone" : "Indian/Mayotte",
        "lat" : -12.8503231,
        "lng" : 45.1050317
    },
    {
        "city" : "Tsingoni",
        "country" : "Mayotte",
        "countryCode" : "yt",
        "region" : "Tsingoni",
        "timezone" : "Indian/Mayotte",
        "lat" : -12.7883663,
        "lng" : 45.1085369
    },
    {
        "city" : "Auki",
        "country" : "Solomon Islands",
        "countryCode" : "sb",
        "region" : "Malaita Province",
        "timezone" : "Pacific/Guadalcanal",
        "lat" : -8.7678593,
        "lng" : 160.6960306
    },
    {
        "city" : "Izola",
        "country" : "Slovenia",
        "countryCode" : "si",
        "region" : "Izola",
        "timezone" : "Europe/Ljubljana",
        "lat" : 45.5374048,
        "lng" : 13.6600802
    },
    {
        "city" : "Lucija",
        "country" : "Slovenia",
        "countryCode" : "si",
        "region" : "Piran",
        "timezone" : "Europe/Ljubljana",
        "lat" : 45.5082134,
        "lng" : 13.6031335
    },
    {
        "city" : "Ban Karon",
        "country" : "Thailand",
        "countryCode" : "th",
        "region" : "Phuket",
        "timezone" : "Asia/Bangkok",
        "lat" : 7.830855,
        "lng" : 98.300178
    },
    {
        "city" : "Ban Ratsada",
        "country" : "Thailand",
        "countryCode" : "th",
        "region" : "Phuket",
        "timezone" : "Asia/Bangkok",
        "lat" : 7.916771,
        "lng" : 98.370774
    },
    {
        "city" : "Bangkok",
        "country" : "Thailand",
        "countryCode" : "th",
        "region" : null,
        "timezone" : "Asia/Bangkok",
        "lat" : 13.7563309,
        "lng" : 100.5017651
    },
    {
        "city" : "Don Sak",
        "country" : "Thailand",
        "countryCode" : "th",
        "region" : "Surat Thani",
        "timezone" : "Asia/Bangkok",
        "lat" : 9.2137904,
        "lng" : 99.7009754
    },
    {
        "city" : "Khlung",
        "country" : "Thailand",
        "countryCode" : "th",
        "region" : "Chanthaburi",
        "timezone" : "Asia/Bangkok",
        "lat" : 12.5444604,
        "lng" : 102.2776838
    },
    {
        "city" : "Ko Lanta",
        "country" : "Thailand",
        "countryCode" : "th",
        "region" : "Krabi",
        "timezone" : "Asia/Bangkok",
        "lat" : 7.6243677,
        "lng" : 99.0792263
    },
    {
        "city" : "Krabi",
        "country" : "Thailand",
        "countryCode" : "th",
        "region" : "Krabi",
        "timezone" : "Asia/Bangkok",
        "lat" : 8.0862997,
        "lng" : 98.9062835
    },
    {
        "city" : "Laem Sing",
        "country" : "Thailand",
        "countryCode" : "th",
        "region" : "Chanthaburi",
        "timezone" : "Asia/Bangkok",
        "lat" : 12.4724196,
        "lng" : 102.1289715
    },
    {
        "city" : "Narathiwat",
        "country" : "Thailand",
        "countryCode" : "th",
        "region" : "Narathiwat",
        "timezone" : "Asia/Bangkok",
        "lat" : 6.4254607,
        "lng" : 101.8253143
    },
    {
        "city" : "Nong Chik",
        "country" : "Thailand",
        "countryCode" : "th",
        "region" : "Pattani",
        "timezone" : "Asia/Bangkok",
        "lat" : 6.801624,
        "lng" : 101.1519275
    },
    {
        "city" : "Patong Beach",
        "country" : "Thailand",
        "countryCode" : "th",
        "region" : "Phuket",
        "timezone" : "Asia/Bangkok",
        "lat" : 7.8965763,
        "lng" : 98.3021044
    },
    {
        "city" : "Pattani",
        "country" : "Thailand",
        "countryCode" : "th",
        "region" : "Pattani",
        "timezone" : "Asia/Bangkok",
        "lat" : 6.7618308,
        "lng" : 101.3232549
    },
    {
        "city" : "Phetchaburi",
        "country" : "Thailand",
        "countryCode" : "th",
        "region" : "Phetchaburi",
        "timezone" : "Asia/Bangkok",
        "lat" : 12.9649215,
        "lng" : 99.6425883
    },
    {
        "city" : "Phuket",
        "country" : "Thailand",
        "countryCode" : "th",
        "region" : "Phuket",
        "timezone" : "Asia/Bangkok",
        "lat" : 7.9519331,
        "lng" : 98.3380884
    },
    {
        "city" : "Ranong",
        "country" : "Thailand",
        "countryCode" : "th",
        "region" : "Ranong",
        "timezone" : "Asia/Bangkok",
        "lat" : 9.9528702,
        "lng" : 98.6084641
    },
    {
        "city" : "Rawai",
        "country" : "Thailand",
        "countryCode" : "th",
        "region" : "Phuket",
        "timezone" : "Asia/Bangkok",
        "lat" : 7.8077767,
        "lng" : 98.3372239
    },
    {
        "city" : "Rayong",
        "country" : "Thailand",
        "countryCode" : "th",
        "region" : "Rayong",
        "timezone" : "Asia/Bangkok",
        "lat" : 12.6813957,
        "lng" : 101.2816261
    },
    {
        "city" : "Sai Buri",
        "country" : "Thailand",
        "countryCode" : "th",
        "region" : "Pattani",
        "timezone" : "Asia/Bangkok",
        "lat" : 6.7179589,
        "lng" : 101.5930268
    },
    {
        "city" : "Saladan",
        "country" : "Thailand",
        "countryCode" : "th",
        "region" : "Krabi",
        "timezone" : "Asia/Bangkok",
        "lat" : 7.6468719,
        "lng" : 99.0364534
    },
    {
        "city" : "Sattahip",
        "country" : "Thailand",
        "countryCode" : "th",
        "region" : "Chon Buri",
        "timezone" : "Asia/Bangkok",
        "lat" : 12.6766338,
        "lng" : 100.8967847
    },
    {
        "city" : "Songkhla",
        "country" : "Thailand",
        "countryCode" : "th",
        "region" : "Songkhla",
        "timezone" : "Asia/Bangkok",
        "lat" : 7.1897659,
        "lng" : 100.5953813
    },
    {
        "city" : "Tachin",
        "country" : "Thailand",
        "countryCode" : "th",
        "region" : "Chai Nat",
        "timezone" : "Asia/Bangkok",
        "lat" : 15.0891256,
        "lng" : 100.0359776
    },
    {
        "city" : "Tak Bai",
        "country" : "Thailand",
        "countryCode" : "th",
        "region" : "Narathiwat",
        "timezone" : "Asia/Bangkok",
        "lat" : 6.2479238,
        "lng" : 102.0032957
    },
    {
        "city" : "Wichit",
        "country" : "Thailand",
        "countryCode" : "th",
        "region" : "Phuket",
        "timezone" : "Asia/Bangkok",
        "lat" : 7.8473284,
        "lng" : 98.3823088
    },
    {
        "city" : "Yaring",
        "country" : "Thailand",
        "countryCode" : "th",
        "region" : "Pattani",
        "timezone" : "Asia/Bangkok",
        "lat" : 6.828057,
        "lng" : 101.3885001
    },
    {
        "city" : "Akcakoca",
        "country" : "Turkey",
        "countryCode" : "tr",
        "region" : "Düzce Province",
        "timezone" : "Europe/Istanbul",
        "lat" : 41.088181,
        "lng" : 31.1239759
    },
    {
        "city" : "Alanya",
        "country" : "Turkey",
        "countryCode" : "tr",
        "region" : "Antalya",
        "timezone" : "Europe/Istanbul",
        "lat" : 36.544443,
        "lng" : 31.995408
    },
    {
        "city" : "Alapli",
        "country" : "Turkey",
        "countryCode" : "tr",
        "region" : "Zonguldak",
        "timezone" : "Europe/Istanbul",
        "lat" : 41.18269,
        "lng" : 31.38453
    },
    {
        "city" : "Aliaga",
        "country" : "Turkey",
        "countryCode" : "tr",
        "region" : "İzmir",
        "timezone" : "Europe/Istanbul",
        "lat" : 38.799561,
        "lng" : 26.97074
    },
    {
        "city" : "Amasra",
        "country" : "Turkey",
        "countryCode" : "tr",
        "region" : "Bartın Province",
        "timezone" : "Europe/Istanbul",
        "lat" : 41.7470209,
        "lng" : 32.3855369
    },
    {
        "city" : "Anamur",
        "country" : "Turkey",
        "countryCode" : "tr",
        "region" : "Mersin Province",
        "timezone" : "Europe/Istanbul",
        "lat" : 36.077286,
        "lng" : 32.832889
    },
    {
        "city" : "Antalya",
        "country" : "Turkey",
        "countryCode" : "tr",
        "region" : "Antalya",
        "timezone" : "Europe/Istanbul",
        "lat" : 36.8968908,
        "lng" : 30.7133233
    },
    {
        "city" : "Arhavi",
        "country" : "Turkey",
        "countryCode" : "tr",
        "region" : "Artvin",
        "timezone" : "Europe/Istanbul",
        "lat" : 41.353055,
        "lng" : 41.308995
    },
    {
        "city" : "Arsin",
        "country" : "Turkey",
        "countryCode" : "tr",
        "region" : "Trabzon",
        "timezone" : "Europe/Istanbul",
        "lat" : 40.953956,
        "lng" : 39.937215
    },
    {
        "city" : "Avsallar",
        "country" : "Turkey",
        "countryCode" : "tr",
        "region" : "Antalya",
        "timezone" : "Europe/Istanbul",
        "lat" : 36.622547,
        "lng" : 31.767263
    },
    {
        "city" : "Ayancik",
        "country" : "Turkey",
        "countryCode" : "tr",
        "region" : "Sinop",
        "timezone" : "Europe/Istanbul",
        "lat" : 41.945806,
        "lng" : 34.588354
    },
    {
        "city" : "Ayvalik",
        "country" : "Turkey",
        "countryCode" : "tr",
        "region" : "Balıkesir Province",
        "timezone" : "Europe/Istanbul",
        "lat" : 39.319185,
        "lng" : 26.692387
    },
    {
        "city" : "Belek",
        "country" : "Turkey",
        "countryCode" : "tr",
        "region" : "Antalya",
        "timezone" : "Europe/Istanbul",
        "lat" : 36.8635954,
        "lng" : 31.0607418
    },
    {
        "city" : "Besikduzu",
        "country" : "Turkey",
        "countryCode" : "tr",
        "region" : "Trabzon",
        "timezone" : "Europe/Istanbul",
        "lat" : 41.05166,
        "lng" : 39.231253
    },
    {
        "city" : "Bodrum",
        "country" : "Turkey",
        "countryCode" : "tr",
        "region" : "Muğla Province",
        "timezone" : "Europe/Istanbul",
        "lat" : 37.034407,
        "lng" : 27.43054
    },
    {
        "city" : "Bulancak",
        "country" : "Turkey",
        "countryCode" : "tr",
        "region" : "Giresun",
        "timezone" : "Europe/Istanbul",
        "lat" : 40.937513,
        "lng" : 38.232043
    },
    {
        "city" : "Burhaniye",
        "country" : "Turkey",
        "countryCode" : "tr",
        "region" : "Balıkesir Province",
        "timezone" : "Europe/Istanbul",
        "lat" : 39.503055,
        "lng" : 26.980172
    },
    {
        "city" : "Canakkale",
        "country" : "Turkey",
        "countryCode" : "tr",
        "region" : "Çanakkale",
        "timezone" : "Europe/Istanbul",
        "lat" : 40.14672,
        "lng" : 26.408587
    },
    {
        "city" : "Cayeli",
        "country" : "Turkey",
        "countryCode" : "tr",
        "region" : "Rize",
        "timezone" : "Europe/Istanbul",
        "lat" : 41.090154,
        "lng" : 40.7275351
    },
    {
        "city" : "Cesme",
        "country" : "Turkey",
        "countryCode" : "tr",
        "region" : "İzmir",
        "timezone" : "Europe/Istanbul",
        "lat" : 38.324311,
        "lng" : 26.303215
    },
    {
        "city" : "Ciftlikkoy",
        "country" : "Turkey",
        "countryCode" : "tr",
        "region" : "Yalova",
        "timezone" : "Europe/Istanbul",
        "lat" : 40.662748,
        "lng" : 29.315346
    },
    {
        "city" : "Cinarcik",
        "country" : "Turkey",
        "countryCode" : "tr",
        "region" : "Yalova",
        "timezone" : "Europe/Istanbul",
        "lat" : 40.645156,
        "lng" : 29.119241
    },
    {
        "city" : "Dalyan",
        "country" : "Turkey",
        "countryCode" : "tr",
        "region" : "Muğla Province",
        "timezone" : "Europe/Istanbul",
        "lat" : 36.834258,
        "lng" : 28.642607
    },
    {
        "city" : "Datca",
        "country" : "Turkey",
        "countryCode" : "tr",
        "region" : "Muğla",
        "timezone" : "Europe/Istanbul",
        "lat" : 36.726217,
        "lng" : 27.685844
    },
    {
        "city" : "Demre",
        "country" : "Turkey",
        "countryCode" : "tr",
        "region" : "Antalya",
        "timezone" : "Europe/Istanbul",
        "lat" : 36.244444,
        "lng" : 29.987479
    },
    {
        "city" : "Denizciler",
        "country" : "Turkey",
        "countryCode" : "tr",
        "region" : null,
        "timezone" : "Europe/Istanbul",
        "lat" : 38.963745,
        "lng" : 35.243322
    },
    {
        "city" : "Didim",
        "country" : "Turkey",
        "countryCode" : "tr",
        "region" : "Aydın Province",
        "timezone" : "Europe/Istanbul",
        "lat" : 37.376094,
        "lng" : 27.264729
    },
    {
        "city" : "Dikili",
        "country" : "Turkey",
        "countryCode" : "tr",
        "region" : "İzmir",
        "timezone" : "Europe/Istanbul",
        "lat" : 39.0749,
        "lng" : 26.889199
    },
    {
        "city" : "Eceabat",
        "country" : "Turkey",
        "countryCode" : "tr",
        "region" : "Çanakkale",
        "timezone" : "Europe/Istanbul",
        "lat" : 40.2276602,
        "lng" : 26.3485586
    },
    {
        "city" : "Erdemli",
        "country" : "Turkey",
        "countryCode" : "tr",
        "region" : "Mersin Province",
        "timezone" : "Europe/Istanbul",
        "lat" : 36.6058189,
        "lng" : 34.310167
    },
    {
        "city" : "Eregli",
        "country" : "Turkey",
        "countryCode" : "tr",
        "region" : "Zonguldak",
        "timezone" : "Europe/Istanbul",
        "lat" : 41.279909,
        "lng" : 31.4202599
    },
    {
        "city" : "Espiye",
        "country" : "Turkey",
        "countryCode" : "tr",
        "region" : "Giresun",
        "timezone" : "Europe/Istanbul",
        "lat" : 40.949744,
        "lng" : 38.708485
    },
    {
        "city" : "Fatsa",
        "country" : "Turkey",
        "countryCode" : "tr",
        "region" : "Ordu",
        "timezone" : "Europe/Istanbul",
        "lat" : 41.031231,
        "lng" : 37.50036
    },
    {
        "city" : "Fethiye",
        "country" : "Turkey",
        "countryCode" : "tr",
        "region" : "Muğla Province",
        "timezone" : "Europe/Istanbul",
        "lat" : 36.659246,
        "lng" : 29.126347
    },
    {
        "city" : "Finike",
        "country" : "Turkey",
        "countryCode" : "tr",
        "region" : "Antalya",
        "timezone" : "Europe/Istanbul",
        "lat" : 36.3909879,
        "lng" : 30.112735
    },
    {
        "city" : "Foca",
        "country" : "Turkey",
        "countryCode" : "tr",
        "region" : "İzmir",
        "timezone" : "Europe/Istanbul",
        "lat" : 38.670378,
        "lng" : 26.757918
    },
    {
        "city" : "Gaziosmanpa&#x15F;a",
        "country" : "Turkey",
        "countryCode" : "tr",
        "region" : "Istanbul",
        "timezone" : "Europe/Istanbul",
        "lat" : 41.0759477,
        "lng" : 28.9004553
    },
    {
        "city" : "Gazipasa",
        "country" : "Turkey",
        "countryCode" : "tr",
        "region" : "Antalya",
        "timezone" : "Europe/Istanbul",
        "lat" : 36.268562,
        "lng" : 32.314304
    },
    {
        "city" : "Gebze",
        "country" : "Turkey",
        "countryCode" : "tr",
        "region" : "Kocaeli",
        "timezone" : "Europe/Istanbul",
        "lat" : 40.9329106,
        "lng" : 29.5339711
    },
    {
        "city" : "Gerze",
        "country" : "Turkey",
        "countryCode" : "tr",
        "region" : "Sinop",
        "timezone" : "Europe/Istanbul",
        "lat" : 41.800599,
        "lng" : 35.19201
    },
    {
        "city" : "Giresun",
        "country" : "Turkey",
        "countryCode" : "tr",
        "region" : "Giresun",
        "timezone" : "Europe/Istanbul",
        "lat" : 40.917532,
        "lng" : 38.392653
    },
    {
        "city" : "Gokceada",
        "country" : "Turkey",
        "countryCode" : "tr",
        "region" : "Çanakkale",
        "timezone" : "Europe/Istanbul",
        "lat" : 40.1669236,
        "lng" : 25.839555
    },
    {
        "city" : "Gurpinar",
        "country" : "Turkey",
        "countryCode" : "tr",
        "region" : "Van",
        "timezone" : "Europe/Istanbul",
        "lat" : 38.2098937,
        "lng" : 43.5632679
    },
    {
        "city" : "Hopa",
        "country" : "Turkey",
        "countryCode" : "tr",
        "region" : "Artvin",
        "timezone" : "Europe/Istanbul",
        "lat" : 41.394618,
        "lng" : 41.4198431
    },
    {
        "city" : "Icel",
        "country" : "Turkey",
        "countryCode" : "tr",
        "region" : "Mersin Province",
        "timezone" : "Europe/Istanbul",
        "lat" : 36.8121041,
        "lng" : 34.6414811
    },
    {
        "city" : "Inebolu",
        "country" : "Turkey",
        "countryCode" : "tr",
        "region" : "Kastamonu",
        "timezone" : "Europe/Istanbul",
        "lat" : 41.97725,
        "lng" : 33.759358
    },
    {
        "city" : "Istanbul",
        "country" : "Turkey",
        "countryCode" : "tr",
        "region" : "Istanbul",
        "timezone" : "Europe/Istanbul",
        "lat" : 41.0082376,
        "lng" : 28.9783589
    },
    {
        "city" : "Kale",
        "country" : "Turkey",
        "countryCode" : "tr",
        "region" : "Indiana",
        "timezone" : "America/Indiana/Indianapolis",
        "lat" : 41.4139367,
        "lng" : -85.729433
    },
    {
        "city" : "Karasu",
        "country" : "Turkey",
        "countryCode" : "tr",
        "region" : "Sakarya",
        "timezone" : "Europe/Istanbul",
        "lat" : 41.095615,
        "lng" : 30.6923559
    },
    {
        "city" : "Karatas",
        "country" : "Turkey",
        "countryCode" : "tr",
        "region" : "Adana",
        "timezone" : "Europe/Istanbul",
        "lat" : 36.6649776,
        "lng" : 35.2587964
    },
    {
        "city" : "Kavakli",
        "country" : "Turkey",
        "countryCode" : "tr",
        "region" : "Kırklareli",
        "timezone" : "Europe/Istanbul",
        "lat" : 41.65,
        "lng" : 27.166667
    },
    {
        "city" : "Kemer",
        "country" : "Turkey",
        "countryCode" : "tr",
        "region" : "Antalya",
        "timezone" : "Europe/Istanbul",
        "lat" : 36.602792,
        "lng" : 30.559762
    },
    {
        "city" : "Kesap",
        "country" : "Turkey",
        "countryCode" : "tr",
        "region" : "Giresun",
        "timezone" : "Europe/Istanbul",
        "lat" : 40.915626,
        "lng" : 38.513043
    },
    {
        "city" : "Kocaali",
        "country" : "Turkey",
        "countryCode" : "tr",
        "region" : "Sakarya",
        "timezone" : "Europe/Istanbul",
        "lat" : 41.0555,
        "lng" : 30.8509
    },
    {
        "city" : "Kumburgaz",
        "country" : "Turkey",
        "countryCode" : "tr",
        "region" : "İstanbul",
        "timezone" : "Europe/Istanbul",
        "lat" : 41.036986,
        "lng" : 28.437815
    },
    {
        "city" : "Kusadasi",
        "country" : "Turkey",
        "countryCode" : "tr",
        "region" : "Aydın Province",
        "timezone" : "Europe/Istanbul",
        "lat" : 37.857913,
        "lng" : 27.261015
    },
    {
        "city" : "Lapseki",
        "country" : "Turkey",
        "countryCode" : "tr",
        "region" : "Çanakkale",
        "timezone" : "Europe/Istanbul",
        "lat" : 40.345477,
        "lng" : 26.6843049
    },
    {
        "city" : "Manavgat",
        "country" : "Turkey",
        "countryCode" : "tr",
        "region" : "Antalya",
        "timezone" : "Europe/Istanbul",
        "lat" : 36.786869,
        "lng" : 31.441282
    },
    {
        "city" : "Marmaraereglisi",
        "country" : "Turkey",
        "countryCode" : "tr",
        "region" : "Tekirdağ",
        "timezone" : "Europe/Istanbul",
        "lat" : 40.969332,
        "lng" : 27.95484
    },
    {
        "city" : "Marmaris",
        "country" : "Turkey",
        "countryCode" : "tr",
        "region" : "Muğla Province",
        "timezone" : "Europe/Istanbul",
        "lat" : 36.854936,
        "lng" : 28.270878
    },
    {
        "city" : "Mimarsinan",
        "country" : "Turkey",
        "countryCode" : "tr",
        "region" : "İstanbul",
        "timezone" : "Europe/Istanbul",
        "lat" : 41.1434752,
        "lng" : 28.9412196
    },
    {
        "city" : "Mudanya",
        "country" : "Turkey",
        "countryCode" : "tr",
        "region" : "Bursa",
        "timezone" : "Europe/Istanbul",
        "lat" : 40.3180088,
        "lng" : 28.7897558
    },
    {
        "city" : "Ordu",
        "country" : "Turkey",
        "countryCode" : "tr",
        "region" : "Ordu",
        "timezone" : "Europe/Istanbul",
        "lat" : 40.986166,
        "lng" : 37.8797209
    },
    {
        "city" : "Persembe",
        "country" : "Turkey",
        "countryCode" : "tr",
        "region" : "Ordu",
        "timezone" : "Europe/Istanbul",
        "lat" : 41.067089,
        "lng" : 37.773469
    },
    {
        "city" : "Piraziz",
        "country" : "Turkey",
        "countryCode" : "tr",
        "region" : "Giresun",
        "timezone" : "Europe/Istanbul",
        "lat" : 40.954562,
        "lng" : 38.119646
    },
    {
        "city" : "Rize",
        "country" : "Turkey",
        "countryCode" : "tr",
        "region" : "Rize",
        "timezone" : "Europe/Istanbul",
        "lat" : 41.025511,
        "lng" : 40.517666
    },
    {
        "city" : "Samsun",
        "country" : "Turkey",
        "countryCode" : "tr",
        "region" : "Samsun",
        "timezone" : "Europe/Istanbul",
        "lat" : 41.2797031,
        "lng" : 36.3360667
    },
    {
        "city" : "Sarigerme",
        "country" : "Turkey",
        "countryCode" : "tr",
        "region" : "Muğla Province",
        "timezone" : "Europe/Istanbul",
        "lat" : 36.71,
        "lng" : 28.701944
    },
    {
        "city" : "Seferihisar",
        "country" : "Turkey",
        "countryCode" : "tr",
        "region" : "İzmir",
        "timezone" : "Europe/Istanbul",
        "lat" : 38.19515,
        "lng" : 26.834402
    },
    {
        "city" : "Sile",
        "country" : "Turkey",
        "countryCode" : "tr",
        "region" : "Istanbul",
        "timezone" : "Europe/Istanbul",
        "lat" : 41.174903,
        "lng" : 29.609588
    },
    {
        "city" : "Silivri",
        "country" : "Turkey",
        "countryCode" : "tr",
        "region" : "Istanbul",
        "timezone" : "Europe/Istanbul",
        "lat" : 41.073678,
        "lng" : 28.247868
    },
    {
        "city" : "Surmene",
        "country" : "Turkey",
        "countryCode" : "tr",
        "region" : "Trabzon",
        "timezone" : "Europe/Istanbul",
        "lat" : 40.911365,
        "lng" : 40.1187579
    },
    {
        "city" : "Tekirda&#x11F;",
        "country" : "Turkey",
        "countryCode" : "tr",
        "region" : "Tekirdağ",
        "timezone" : "Europe/Istanbul",
        "lat" : 40.9780919,
        "lng" : 27.511674
    },
    {
        "city" : "Tekirova",
        "country" : "Turkey",
        "countryCode" : "tr",
        "region" : "Antalya",
        "timezone" : "Europe/Istanbul",
        "lat" : 36.501926,
        "lng" : 30.526392
    },
    {
        "city" : "Tekkekoy",
        "country" : "Turkey",
        "countryCode" : "tr",
        "region" : "Samsun",
        "timezone" : "Europe/Istanbul",
        "lat" : 41.1790004,
        "lng" : 36.4736321
    },
    {
        "city" : "Tepecik",
        "country" : "Turkey",
        "countryCode" : "tr",
        "region" : "Batman",
        "timezone" : "Europe/Istanbul",
        "lat" : 37.583829,
        "lng" : 41.140008
    },
    {
        "city" : "Terme",
        "country" : "Turkey",
        "countryCode" : "tr",
        "region" : "Samsun",
        "timezone" : "Europe/Istanbul",
        "lat" : 41.208647,
        "lng" : 36.972055
    },
    {
        "city" : "Tirebolu",
        "country" : "Turkey",
        "countryCode" : "tr",
        "region" : "Giresun",
        "timezone" : "Europe/Istanbul",
        "lat" : 41.007457,
        "lng" : 38.814595
    },
    {
        "city" : "Trabzon",
        "country" : "Turkey",
        "countryCode" : "tr",
        "region" : "Trabzon",
        "timezone" : "Europe/Istanbul",
        "lat" : 41.0026969,
        "lng" : 39.7167633
    },
    {
        "city" : "Urla",
        "country" : "Turkey",
        "countryCode" : "tr",
        "region" : "İzmir",
        "timezone" : "Europe/Istanbul",
        "lat" : 38.324972,
        "lng" : 26.76681
    },
    {
        "city" : "Vakfikebir",
        "country" : "Turkey",
        "countryCode" : "tr",
        "region" : "Trabzon",
        "timezone" : "Europe/Istanbul",
        "lat" : 41.045833,
        "lng" : 39.279024
    },
    {
        "city" : "Yalova",
        "country" : "Turkey",
        "countryCode" : "tr",
        "region" : "Yalova Province",
        "timezone" : "Europe/Istanbul",
        "lat" : 40.654895,
        "lng" : 29.284186
    },
    {
        "city" : "Yumurtalik",
        "country" : "Turkey",
        "countryCode" : "tr",
        "region" : "Adana",
        "timezone" : "Europe/Istanbul",
        "lat" : 36.768649,
        "lng" : 35.788214
    },
    {
        "city" : "Yuvacik",
        "country" : "Turkey",
        "countryCode" : "tr",
        "region" : "Antalya",
        "timezone" : "Europe/Istanbul",
        "lat" : 36.432559,
        "lng" : 29.560529
    },
    {
        "city" : "Zonguldak",
        "country" : "Turkey",
        "countryCode" : "tr",
        "region" : "Zonguldak",
        "timezone" : "Europe/Istanbul",
        "lat" : 41.453521,
        "lng" : 31.78938
    },
    {
        "city" : "Alushta",
        "country" : "Ukraine",
        "countryCode" : "ua",
        "region" : null,
        "timezone" : "Europe/Simferopol",
        "lat" : 44.676383,
        "lng" : 34.41005
    },
    {
        "city" : "Berdyansk",
        "country" : "Ukraine",
        "countryCode" : "ua",
        "region" : "Zaporizhia Oblast",
        "timezone" : "Europe/Kiev",
        "lat" : 46.7737707,
        "lng" : 36.8034779
    },
    {
        "city" : "Evpatoriya",
        "country" : "Ukraine",
        "countryCode" : "ua",
        "region" : null,
        "timezone" : "Europe/Simferopol",
        "lat" : 45.19045,
        "lng" : 33.366867
    },
    {
        "city" : "Fontanka",
        "country" : "Ukraine",
        "countryCode" : "ua",
        "region" : "Odessa Oblast",
        "timezone" : "Europe/Kiev",
        "lat" : 46.5620633,
        "lng" : 30.8631957
    },
    {
        "city" : "Hurzuf",
        "country" : "Ukraine",
        "countryCode" : "ua",
        "region" : null,
        "timezone" : "Europe/Simferopol",
        "lat" : 44.5484481,
        "lng" : 34.2841861
    },
    {
        "city" : "Illichivs'k",
        "country" : "Ukraine",
        "countryCode" : "ua",
        "region" : "Odessa Oblast",
        "timezone" : "Europe/Kiev",
        "lat" : 46.2952236,
        "lng" : 30.6480855
    },
    {
        "city" : "Kacha",
        "country" : "Ukraine",
        "countryCode" : "ua",
        "region" : null,
        "timezone" : "Europe/Simferopol",
        "lat" : 44.7771057,
        "lng" : 33.5458805
    },
    {
        "city" : "Miskhor",
        "country" : "Ukraine",
        "countryCode" : "ua",
        "region" : null,
        "timezone" : "Europe/Kiev",
        "lat" : 48.379433,
        "lng" : 31.1655799
    },
    {
        "city" : "Mysove",
        "country" : "Ukraine",
        "countryCode" : "ua",
        "region" : null,
        "timezone" : "Europe/Simferopol",
        "lat" : 45.4451601,
        "lng" : 35.8363269
    },
    {
        "city" : "Odesa",
        "country" : "Ukraine",
        "countryCode" : "ua",
        "region" : "Odessa Oblast",
        "timezone" : "Europe/Kiev",
        "lat" : 46.482526,
        "lng" : 30.7233095
    },
    {
        "city" : "Partenit",
        "country" : "Ukraine",
        "countryCode" : "ua",
        "region" : null,
        "timezone" : "Europe/Simferopol",
        "lat" : 44.5765376,
        "lng" : 34.3431531
    },
    {
        "city" : "Prymors'k",
        "country" : "Ukraine",
        "countryCode" : "ua",
        "region" : "Zaporizhia Oblast",
        "timezone" : "Europe/Kiev",
        "lat" : 46.7230781,
        "lng" : 36.354122
    },
    {
        "city" : "Scholkine",
        "country" : "Ukraine",
        "countryCode" : "ua",
        "region" : null,
        "timezone" : "Europe/Simferopol",
        "lat" : 45.4225908,
        "lng" : 35.8206159
    },
    {
        "city" : "Sergeyevka",
        "country" : "Ukraine",
        "countryCode" : "ua",
        "region" : "Odessa Oblast",
        "timezone" : "Europe/Kiev",
        "lat" : 46.0291026,
        "lng" : 30.3651852
    },
    {
        "city" : "Sevastopol",
        "country" : "Ukraine",
        "countryCode" : "ua",
        "region" : null,
        "timezone" : "Europe/Simferopol",
        "lat" : 44.61665,
        "lng" : 33.5253671
    },
    {
        "city" : "Shabo",
        "country" : "Ukraine",
        "countryCode" : "ua",
        "region" : "Odessa Oblast",
        "timezone" : "Europe/Kiev",
        "lat" : 46.1282187,
        "lng" : 30.384612
    },
    {
        "city" : "Sudak",
        "country" : "Ukraine",
        "countryCode" : "ua",
        "region" : null,
        "timezone" : "Europe/Simferopol",
        "lat" : 44.850467,
        "lng" : 34.976183
    },
    {
        "city" : "Yalta",
        "country" : "Ukraine",
        "countryCode" : "ua",
        "region" : null,
        "timezone" : "Europe/Simferopol",
        "lat" : 44.495205,
        "lng" : 34.166301
    },
    {
        "city" : "Yalta",
        "country" : "Ukraine",
        "countryCode" : "ua",
        "region" : null,
        "timezone" : "Europe/Simferopol",
        "lat" : 44.495205,
        "lng" : 34.166301
    },
    {
        "city" : "Yuzhne",
        "country" : "Ukraine",
        "countryCode" : "ua",
        "region" : "Odessa Oblast",
        "timezone" : "Europe/Kiev",
        "lat" : 46.6240213,
        "lng" : 31.1000648
    },
    {
        "city" : "Castelsardo",
        "country" : "Italy",
        "countryCode" : "it",
        "region" : "Sardinia",
        "timezone" : "Europe/Rome",
        "lat" : 40.913692,
        "lng" : 8.708592
    },
    {
        "city" : "Catania",
        "country" : "Italy",
        "countryCode" : "it",
        "region" : "Sicily",
        "timezone" : "Europe/Rome",
        "lat" : 37.5078772,
        "lng" : 15.0830304
    },
    {
        "city" : "Cattolica",
        "country" : "Italy",
        "countryCode" : "it",
        "region" : "Emilia-Romagna",
        "timezone" : "Europe/Rome",
        "lat" : 43.963318,
        "lng" : 12.7384318
    },
    {
        "city" : "Cavallino",
        "country" : "Italy",
        "countryCode" : "it",
        "region" : "Veneto",
        "timezone" : "Europe/Rome",
        "lat" : 45.4581725,
        "lng" : 12.4616076
    },
    {
        "city" : "Cecina",
        "country" : "Italy",
        "countryCode" : "it",
        "region" : "Tuscany",
        "timezone" : "Europe/Rome",
        "lat" : 43.3176381,
        "lng" : 10.4958678
    },
    {
        "city" : "Cefalu",
        "country" : "Italy",
        "countryCode" : "it",
        "region" : "Sicily",
        "timezone" : "Europe/Rome",
        "lat" : 38.0084171,
        "lng" : 14.0188436
    },
    {
        "city" : "Ceriale",
        "country" : "Italy",
        "countryCode" : "it",
        "region" : "Liguria",
        "timezone" : "Europe/Rome",
        "lat" : 44.0969663,
        "lng" : 8.2319789
    },
    {
        "city" : "Pylaia",
        "country" : "Greece",
        "countryCode" : "gr",
        "region" : null,
        "timezone" : "Europe/Athens",
        "lat" : 40.6027503,
        "lng" : 22.9896482
    },
    {
        "city" : "Pylos",
        "country" : "Greece",
        "countryCode" : "gr",
        "region" : null,
        "timezone" : "Europe/Athens",
        "lat" : 36.9130756,
        "lng" : 21.6963472
    },
    {
        "city" : "Pyrgos",
        "country" : "Greece",
        "countryCode" : "gr",
        "region" : null,
        "timezone" : "Europe/Athens",
        "lat" : 37.6718487,
        "lng" : 21.4432257
    },
    {
        "city" : "Rafina",
        "country" : "Greece",
        "countryCode" : "gr",
        "region" : null,
        "timezone" : "Europe/Athens",
        "lat" : 38.0234457,
        "lng" : 24.0059241
    },
    {
        "city" : "R&#xE9;thimnon",
        "country" : "Greece",
        "countryCode" : "gr",
        "region" : null,
        "timezone" : "Europe/Athens",
        "lat" : 35.3643615,
        "lng" : 24.4821552
    },
    {
        "city" : "R&#xF3;dhos",
        "country" : "Greece",
        "countryCode" : "gr",
        "region" : null,
        "timezone" : "Europe/Athens",
        "lat" : 36.4340533,
        "lng" : 28.2176379
    },
    {
        "city" : "Salamis",
        "country" : "Greece",
        "countryCode" : "gr",
        "region" : null,
        "timezone" : "Europe/Athens",
        "lat" : 37.9290786,
        "lng" : 23.5133267
    },
    {
        "city" : "Siteia",
        "country" : "Greece",
        "countryCode" : "gr",
        "region" : null,
        "timezone" : "Europe/Athens",
        "lat" : 35.2086503,
        "lng" : 26.1052329
    },
    {
        "city" : "Skiathos",
        "country" : "Greece",
        "countryCode" : "gr",
        "region" : null,
        "timezone" : "Europe/Athens",
        "lat" : 39.16352,
        "lng" : 23.4901667
    },
    {
        "city" : "Souda",
        "country" : "Greece",
        "countryCode" : "gr",
        "region" : null,
        "timezone" : "Europe/Athens",
        "lat" : 35.4874818,
        "lng" : 24.0742105
    },
    {
        "city" : "Stylis",
        "country" : "Greece",
        "countryCode" : "gr",
        "region" : null,
        "timezone" : "Europe/Athens",
        "lat" : 38.9568788,
        "lng" : 22.6437026
    },
    {
        "city" : "Sykeai",
        "country" : "Greece",
        "countryCode" : "gr",
        "region" : null,
        "timezone" : "Europe/Athens",
        "lat" : 40.6485476,
        "lng" : 22.9565995
    },
    {
        "city" : "Thermi",
        "country" : "Greece",
        "countryCode" : "gr",
        "region" : null,
        "timezone" : "Europe/Athens",
        "lat" : 40.5485201,
        "lng" : 23.019646
    },
    {
        "city" : "Thessalonika",
        "country" : "Greece",
        "countryCode" : "gr",
        "region" : null,
        "timezone" : "Europe/Athens",
        "lat" : 40.6400629,
        "lng" : 22.9444191
    },
    {
        "city" : "Trianta",
        "country" : "Greece",
        "countryCode" : "gr",
        "region" : null,
        "timezone" : "Europe/Athens",
        "lat" : 36.4126577,
        "lng" : 28.1554071
    },
    {
        "city" : "Vasilikon",
        "country" : "Greece",
        "countryCode" : "gr",
        "region" : null,
        "timezone" : "Europe/Athens",
        "lat" : 38.4251725,
        "lng" : 23.6720959
    },
    {
        "city" : "Volos",
        "country" : "Greece",
        "countryCode" : "gr",
        "region" : null,
        "timezone" : "Europe/Athens",
        "lat" : 39.3621896,
        "lng" : 22.942159
    },
    {
        "city" : "Voula",
        "country" : "Greece",
        "countryCode" : "gr",
        "region" : null,
        "timezone" : "Europe/Athens",
        "lat" : 37.8453451,
        "lng" : 23.7604527
    },
    {
        "city" : "Xylokastron",
        "country" : "Greece",
        "countryCode" : "gr",
        "region" : null,
        "timezone" : "Europe/Athens",
        "lat" : 38.0772641,
        "lng" : 22.6326975
    },
    {
        "city" : "Zante",
        "country" : "Greece",
        "countryCode" : "gr",
        "region" : null,
        "timezone" : "Europe/Athens",
        "lat" : 37.7870331,
        "lng" : 20.8998759
    },
    {
        "city" : "&#xC1;gios Nik&#xF3;laos",
        "country" : "Greece",
        "countryCode" : "gr",
        "region" : null,
        "timezone" : "Europe/Athens",
        "lat" : 35.1899597,
        "lng" : 25.7164166
    },
    {
        "city" : "Amuay",
        "country" : "Venezuela",
        "countryCode" : "ve",
        "region" : "Falcón",
        "timezone" : "America/Caracas",
        "lat" : 11.776897,
        "lng" : -70.2423207
    },
    {
        "city" : "Barcelona",
        "country" : "Venezuela",
        "countryCode" : "ve",
        "region" : "Anzoategui",
        "timezone" : "America/Caracas",
        "lat" : 10.1445691,
        "lng" : -64.67768
    },
    {
        "city" : "Caracas",
        "country" : "Venezuela",
        "countryCode" : "ve",
        "region" : "Capital District",
        "timezone" : "America/Caracas",
        "lat" : 10.4805937,
        "lng" : -66.9036063
    },
    {
        "city" : "Carupano",
        "country" : "Venezuela",
        "countryCode" : "ve",
        "region" : "Sucre",
        "timezone" : "America/Caracas",
        "lat" : 10.6429802,
        "lng" : -63.2562482
    },
    {
        "city" : "Chichiriviche",
        "country" : "Venezuela",
        "countryCode" : "ve",
        "region" : "Falcón",
        "timezone" : "America/Caracas",
        "lat" : 10.9360102,
        "lng" : -68.2772875
    },
    {
        "city" : "Cuman&#xE1;",
        "country" : "Venezuela",
        "countryCode" : "ve",
        "region" : "Sucre",
        "timezone" : "America/Caracas",
        "lat" : 10.431916,
        "lng" : -64.183316
    },
    {
        "city" : "G&#xFC;iria",
        "country" : "Venezuela",
        "countryCode" : "ve",
        "region" : "Sucre",
        "timezone" : "America/Caracas",
        "lat" : 10.584981,
        "lng" : -62.3037176
    },
    {
        "city" : "La Guaira",
        "country" : "Venezuela",
        "countryCode" : "ve",
        "region" : "Vargas",
        "timezone" : "America/Caracas",
        "lat" : 10.6024787,
        "lng" : -66.9313444
    },
    {
        "city" : "Maiquetia",
        "country" : "Venezuela",
        "countryCode" : "ve",
        "region" : "Vargas",
        "timezone" : "America/Caracas",
        "lat" : 10.6035234,
        "lng" : -66.992844
    },
    {
        "city" : "Malecon",
        "country" : "Venezuela",
        "countryCode" : "ve",
        "region" : "Lara",
        "timezone" : "America/Caracas",
        "lat" : 10.0750117,
        "lng" : -69.3160626
    },
    {
        "city" : "Maracaibo",
        "country" : "Venezuela",
        "countryCode" : "ve",
        "region" : "Zulia",
        "timezone" : "America/Caracas",
        "lat" : 10.642707,
        "lng" : -71.6125366
    },
    {
        "city" : "Moron",
        "country" : "Venezuela",
        "countryCode" : "ve",
        "region" : "Carabobo",
        "timezone" : "America/Caracas",
        "lat" : 10.4923415,
        "lng" : -68.1967995
    },
    {
        "city" : "Porlamar",
        "country" : "Venezuela",
        "countryCode" : "ve",
        "region" : "Nueva Esparta",
        "timezone" : "America/Caracas",
        "lat" : 10.9570221,
        "lng" : -63.8699655
    },
    {
        "city" : "Punto Fijo",
        "country" : "Venezuela",
        "countryCode" : "ve",
        "region" : "Falcón",
        "timezone" : "America/Caracas",
        "lat" : 11.711511,
        "lng" : -70.1813018
    },
    {
        "city" : "Tucacas",
        "country" : "Venezuela",
        "countryCode" : "ve",
        "region" : "Falcón",
        "timezone" : "America/Caracas",
        "lat" : 10.7905835,
        "lng" : -68.3235126
    },
    {
        "city" : "Cesenatico",
        "country" : "Italy",
        "countryCode" : "it",
        "region" : "Emilia-Romagna",
        "timezone" : "Europe/Rome",
        "lat" : 44.200847,
        "lng" : 12.4052023
    },
    {
        "city" : "Cetraro",
        "country" : "Italy",
        "countryCode" : "it",
        "region" : "Calabria",
        "timezone" : "Europe/Rome",
        "lat" : 39.5165486,
        "lng" : 15.9409053
    },
    {
        "city" : "Chioggia",
        "country" : "Italy",
        "countryCode" : "it",
        "region" : "Veneto",
        "timezone" : "Europe/Rome",
        "lat" : 45.2198654,
        "lng" : 12.2790144
    },
    {
        "city" : "Cinisi",
        "country" : "Italy",
        "countryCode" : "it",
        "region" : "Sicilia",
        "timezone" : "Europe/Rome",
        "lat" : 38.155087,
        "lng" : 13.1088097
    },
    {
        "city" : "Ciro Marina",
        "country" : "Italy",
        "countryCode" : "it",
        "region" : "Calabria",
        "timezone" : "Europe/Rome",
        "lat" : 39.3676141,
        "lng" : 17.1277751
    },
    {
        "city" : "Civitavecchia",
        "country" : "Italy",
        "countryCode" : "it",
        "region" : "Lazio",
        "timezone" : "Europe/Rome",
        "lat" : 42.0924239,
        "lng" : 11.7954132
    },
    {
        "city" : "Cogoleto",
        "country" : "Italy",
        "countryCode" : "it",
        "region" : "Liguria",
        "timezone" : "Europe/Rome",
        "lat" : 44.3894205,
        "lng" : 8.6469711
    },
    {
        "city" : "Cupra Marittima",
        "country" : "Italy",
        "countryCode" : "it",
        "region" : "Marche",
        "timezone" : "Europe/Rome",
        "lat" : 43.0265271,
        "lng" : 13.8581917
    },
    {
        "city" : "Diamante",
        "country" : "Italy",
        "countryCode" : "it",
        "region" : "Calabria",
        "timezone" : "Europe/Rome",
        "lat" : 39.7004919,
        "lng" : 15.8231588
    },
    {
        "city" : "Diano Marina",
        "country" : "Italy",
        "countryCode" : "it",
        "region" : "Liguria",
        "timezone" : "Europe/Rome",
        "lat" : 43.9113055,
        "lng" : 8.0628862
    },
    {
        "city" : "Duino",
        "country" : "Italy",
        "countryCode" : "it",
        "region" : "Friuli-Venezia Giulia",
        "timezone" : "Europe/Rome",
        "lat" : 45.7753929,
        "lng" : 13.6026211
    },
    {
        "city" : "Elmas",
        "country" : "Italy",
        "countryCode" : "it",
        "region" : "Sardinia",
        "timezone" : "Europe/Rome",
        "lat" : 39.2634329,
        "lng" : 9.0515805
    },
    {
        "city" : "Ercolano",
        "country" : "Italy",
        "countryCode" : "it",
        "region" : "Campania",
        "timezone" : "Europe/Rome",
        "lat" : 40.8079195,
        "lng" : 14.3481628
    },
    {
        "city" : "Erice",
        "country" : "Italy",
        "countryCode" : "it",
        "region" : "Sicilia",
        "timezone" : "Europe/Rome",
        "lat" : 38.0380892,
        "lng" : 12.5873511
    },
    {
        "city" : "Fano",
        "country" : "Italy",
        "countryCode" : "it",
        "region" : "Marche",
        "timezone" : "Europe/Rome",
        "lat" : 43.8398164,
        "lng" : 13.0194201
    },
    {
        "city" : "Finale Ligure",
        "country" : "Italy",
        "countryCode" : "it",
        "region" : "Liguria",
        "timezone" : "Europe/Rome",
        "lat" : 44.1689028,
        "lng" : 8.3416211
    },
    {
        "city" : "Fiumicino",
        "country" : "Italy",
        "countryCode" : "it",
        "region" : "Lazio",
        "timezone" : "Europe/Rome",
        "lat" : 41.7735409,
        "lng" : 12.2397117
    },
    {
        "city" : "Follonica",
        "country" : "Italy",
        "countryCode" : "it",
        "region" : "Tuscany",
        "timezone" : "Europe/Rome",
        "lat" : 42.9226887,
        "lng" : 10.7593003
    },
    {
        "city" : "Forio",
        "country" : "Italy",
        "countryCode" : "it",
        "region" : "Campania",
        "timezone" : "Europe/Rome",
        "lat" : 40.7382914,
        "lng" : 13.8605512
    },
    {
        "city" : "Formia",
        "country" : "Italy",
        "countryCode" : "it",
        "region" : "Lazio",
        "timezone" : "Europe/Rome",
        "lat" : 41.2559961,
        "lng" : 13.6068672
    },
    {
        "city" : "Fossacesia",
        "country" : "Italy",
        "countryCode" : "it",
        "region" : "Abruzzo",
        "timezone" : "Europe/Rome",
        "lat" : 42.2440575,
        "lng" : 14.480186
    },
    {
        "city" : "Fuscaldo",
        "country" : "Italy",
        "countryCode" : "it",
        "region" : "Calabria",
        "timezone" : "Europe/Rome",
        "lat" : 39.4129525,
        "lng" : 16.0266945
    },
    {
        "city" : "Gaeta",
        "country" : "Italy",
        "countryCode" : "it",
        "region" : "Lazio",
        "timezone" : "Europe/Rome",
        "lat" : 41.2107299,
        "lng" : 13.5714285
    },
    {
        "city" : "Gallipoli",
        "country" : "Italy",
        "countryCode" : "it",
        "region" : "Apulia",
        "timezone" : "Europe/Rome",
        "lat" : 40.0558508,
        "lng" : 17.9926137
    },
    {
        "city" : "Gela",
        "country" : "Italy",
        "countryCode" : "it",
        "region" : "Sicily",
        "timezone" : "Europe/Rome",
        "lat" : 37.0741526,
        "lng" : 14.2403537
    },
    {
        "city" : "Genoa",
        "country" : "Italy",
        "countryCode" : "it",
        "region" : "Liguria",
        "timezone" : "Europe/Rome",
        "lat" : 44.4056499,
        "lng" : 8.946256
    },
    {
        "city" : "Giarre",
        "country" : "Italy",
        "countryCode" : "it",
        "region" : "Sicily",
        "timezone" : "Europe/Rome",
        "lat" : 37.7269871,
        "lng" : 15.1842443
    },
    {
        "city" : "Gioia Tauro",
        "country" : "Italy",
        "countryCode" : "it",
        "region" : "Calabria",
        "timezone" : "Europe/Rome",
        "lat" : 38.4262258,
        "lng" : 15.8988669
    },
    {
        "city" : "Gioiosa Ionica",
        "country" : "Italy",
        "countryCode" : "it",
        "region" : "Calabria",
        "timezone" : "Europe/Rome",
        "lat" : 38.3397203,
        "lng" : 16.3059997
    },
    {
        "city" : "Gioiosa Marea",
        "country" : "Italy",
        "countryCode" : "it",
        "region" : "Sicily",
        "timezone" : "Europe/Rome",
        "lat" : 38.163861,
        "lng" : 14.9272044
    },
    {
        "city" : "Giulianova",
        "country" : "Italy",
        "countryCode" : "it",
        "region" : "Abruzzo",
        "timezone" : "Europe/Rome",
        "lat" : 42.7538138,
        "lng" : 13.9665051
    },
    {
        "city" : "Grado",
        "country" : "Italy",
        "countryCode" : "it",
        "region" : "Friuli-Venezia Giulia",
        "timezone" : "Europe/Rome",
        "lat" : 45.6817741,
        "lng" : 13.3863992
    },
    {
        "city" : "Gragnano",
        "country" : "Italy",
        "countryCode" : "it",
        "region" : "Campania",
        "timezone" : "Europe/Rome",
        "lat" : 40.6825776,
        "lng" : 14.5363969
    },
    {
        "city" : "Grottammare",
        "country" : "Italy",
        "countryCode" : "it",
        "region" : "Marche",
        "timezone" : "Europe/Rome",
        "lat" : 42.9853425,
        "lng" : 13.8683671
    },
    {
        "city" : "Imperia",
        "country" : "Italy",
        "countryCode" : "it",
        "region" : "Liguria",
        "timezone" : "Europe/Rome",
        "lat" : 43.8896857,
        "lng" : 8.039517
    },
    {
        "city" : "Ischia",
        "country" : "Italy",
        "countryCode" : "it",
        "region" : "Campania",
        "timezone" : "Europe/Rome",
        "lat" : 40.7270164,
        "lng" : 13.9028656
    },
    {
        "city" : "Ischia Porto",
        "country" : "Italy",
        "countryCode" : "it",
        "region" : "Campania",
        "timezone" : "Europe/Rome",
        "lat" : 40.7379299,
        "lng" : 13.9486184
    },
    {
        "city" : "La Maddalena",
        "country" : "Italy",
        "countryCode" : "it",
        "region" : "Sardinia",
        "timezone" : "Europe/Rome",
        "lat" : 41.2165538,
        "lng" : 9.4047122
    },
    {
        "city" : "La Spezia",
        "country" : "Italy",
        "countryCode" : "it",
        "region" : "Liguria",
        "timezone" : "Europe/Rome",
        "lat" : 44.1024504,
        "lng" : 9.8240826
    },
    {
        "city" : "Lampedusa",
        "country" : "Italy",
        "countryCode" : "it",
        "region" : "Sicily",
        "timezone" : "Europe/Rome",
        "lat" : 35.5086218,
        "lng" : 12.59292
    },
    {
        "city" : "Lavagna",
        "country" : "Italy",
        "countryCode" : "it",
        "region" : "Liguria",
        "timezone" : "Europe/Rome",
        "lat" : 44.3085856,
        "lng" : 9.3418012
    },
    {
        "city" : "Lavinio",
        "country" : "Italy",
        "countryCode" : "it",
        "region" : "Lazio",
        "timezone" : "Europe/Rome",
        "lat" : 41.4997397,
        "lng" : 12.5886389
    },
    {
        "city" : "Lerici",
        "country" : "Italy",
        "countryCode" : "it",
        "region" : "Liguria",
        "timezone" : "Europe/Rome",
        "lat" : 44.0756332,
        "lng" : 9.9169337
    },
    {
        "city" : "Lesina",
        "country" : "Italy",
        "countryCode" : "it",
        "region" : "Puglia",
        "timezone" : "Europe/Rome",
        "lat" : 41.8627993,
        "lng" : 15.3531516
    },
    {
        "city" : "Levanto",
        "country" : "Italy",
        "countryCode" : "it",
        "region" : "Liguria",
        "timezone" : "Europe/Rome",
        "lat" : 44.1913789,
        "lng" : 9.6230001
    },
    {
        "city" : "Lido di Roma",
        "country" : "Italy",
        "countryCode" : "it",
        "region" : "Lazio",
        "timezone" : "Europe/Rome",
        "lat" : 41.7311182,
        "lng" : 12.2862694
    },
    {
        "city" : "Lipari",
        "country" : "Italy",
        "countryCode" : "it",
        "region" : "Sicily",
        "timezone" : "Europe/Rome",
        "lat" : 38.4936623,
        "lng" : 14.9272044
    },
    {
        "city" : "Livorno",
        "country" : "Italy",
        "countryCode" : "it",
        "region" : "Tuscany",
        "timezone" : "Europe/Rome",
        "lat" : 43.548473,
        "lng" : 10.3105674
    },
    {
        "city" : "Loano",
        "country" : "Italy",
        "countryCode" : "it",
        "region" : "Liguria",
        "timezone" : "Europe/Rome",
        "lat" : 44.1306408,
        "lng" : 8.2609671
    },
    {
        "city" : "Locri",
        "country" : "Italy",
        "countryCode" : "it",
        "region" : "Calabria",
        "timezone" : "Europe/Rome",
        "lat" : 38.2337193,
        "lng" : 16.2638009
    },
    {
        "city" : "Loreto",
        "country" : "Italy",
        "countryCode" : "it",
        "region" : "Marche",
        "timezone" : "Europe/Rome",
        "lat" : 43.4363086,
        "lng" : 13.6189078
    },
    {
        "city" : "Maiori",
        "country" : "Italy",
        "countryCode" : "it",
        "region" : "Campania",
        "timezone" : "Europe/Rome",
        "lat" : 40.6512305,
        "lng" : 14.6433648
    },
    {
        "city" : "Manfredonia",
        "country" : "Italy",
        "countryCode" : "it",
        "region" : "Apulia",
        "timezone" : "Europe/Rome",
        "lat" : 41.6307347,
        "lng" : 15.9165105
    },
    {
        "city" : "Maratea",
        "country" : "Italy",
        "countryCode" : "it",
        "region" : "Basilicata",
        "timezone" : "Europe/Rome",
        "lat" : 39.9985224,
        "lng" : 15.7185109
    },
    {
        "city" : "Marsala",
        "country" : "Italy",
        "countryCode" : "it",
        "region" : "Sicily",
        "timezone" : "Europe/Rome",
        "lat" : 37.798045,
        "lng" : 12.4370156
    },
    {
        "city" : "Rosignol",
        "country" : "Guyana",
        "countryCode" : "gy",
        "region" : "Mahaica-Berbice",
        "timezone" : "America/Guyana",
        "lat" : 6.2792612,
        "lng" : -57.5391225
    },
    {
        "city" : "Skeldon",
        "country" : "Guyana",
        "countryCode" : "gy",
        "region" : "East Berbice-Corentyne",
        "timezone" : "America/Guyana",
        "lat" : 5.8700491,
        "lng" : -57.1492443
    },
    {
        "city" : "Martinsicuro",
        "country" : "Italy",
        "countryCode" : "it",
        "region" : "Abruzzo",
        "timezone" : "Europe/Rome",
        "lat" : 42.8869619,
        "lng" : 13.9131944
    },
    {
        "city" : "Massalubrense",
        "country" : "Italy",
        "countryCode" : "it",
        "region" : "Campania",
        "timezone" : "Europe/Rome",
        "lat" : 40.6088754,
        "lng" : 14.3413852
    },
    {
        "city" : "Mattinata",
        "country" : "Italy",
        "countryCode" : "it",
        "region" : "Puglia",
        "timezone" : "Europe/Rome",
        "lat" : 41.7106192,
        "lng" : 16.0490882
    },
    {
        "city" : "Messina",
        "country" : "Italy",
        "countryCode" : "it",
        "region" : "Sicily",
        "timezone" : "Europe/Rome",
        "lat" : 38.1938137,
        "lng" : 15.5540152
    },
    {
        "city" : "Minturno",
        "country" : "Italy",
        "countryCode" : "it",
        "region" : "Lazio",
        "timezone" : "Europe/Rome",
        "lat" : 41.2657426,
        "lng" : 13.7443642
    },
    {
        "city" : "Mola di Bari",
        "country" : "Italy",
        "countryCode" : "it",
        "region" : "Apulia",
        "timezone" : "Europe/Rome",
        "lat" : 41.0629733,
        "lng" : 17.0903032
    },
    {
        "city" : "Molfetta",
        "country" : "Italy",
        "countryCode" : "it",
        "region" : "Apulia",
        "timezone" : "Europe/Rome",
        "lat" : 41.2027767,
        "lng" : 16.5987187
    },
    {
        "city" : "Mondolfo",
        "country" : "Italy",
        "countryCode" : "it",
        "region" : "Marche",
        "timezone" : "Europe/Rome",
        "lat" : 43.7535731,
        "lng" : 13.0957576
    },
    {
        "city" : "Mondragone",
        "country" : "Italy",
        "countryCode" : "it",
        "region" : "Campania",
        "timezone" : "Europe/Rome",
        "lat" : 41.1147986,
        "lng" : 13.8934931
    },
    {
        "city" : "Monopoli",
        "country" : "Italy",
        "countryCode" : "it",
        "region" : "Apulia",
        "timezone" : "Europe/Rome",
        "lat" : 40.9525166,
        "lng" : 17.2985559
    },
    {
        "city" : "Montemarciano",
        "country" : "Italy",
        "countryCode" : "it",
        "region" : "Marche",
        "timezone" : "Europe/Rome",
        "lat" : 43.6394889,
        "lng" : 13.3071192
    },
    {
        "city" : "Montignoso",
        "country" : "Italy",
        "countryCode" : "it",
        "region" : "Tuscany",
        "timezone" : "Europe/Rome",
        "lat" : 44.0076086,
        "lng" : 10.1647233
    },
    {
        "city" : "Muggia",
        "country" : "Italy",
        "countryCode" : "it",
        "region" : "Friuli-Venezia Giulia",
        "timezone" : "Europe/Rome",
        "lat" : 45.6031543,
        "lng" : 13.7667974
    },
    {
        "city" : "Naples",
        "country" : "Italy",
        "countryCode" : "it",
        "region" : "Campania",
        "timezone" : "Europe/Rome",
        "lat" : 40.8517983,
        "lng" : 14.26812
    },
    {
        "city" : "Nettuno",
        "country" : "Italy",
        "countryCode" : "it",
        "region" : "Lazio",
        "timezone" : "Europe/Rome",
        "lat" : 41.4577305,
        "lng" : 12.6654914
    },
    {
        "city" : "Nicotera",
        "country" : "Italy",
        "countryCode" : "it",
        "region" : "Calabria",
        "timezone" : "Europe/Rome",
        "lat" : 38.5542178,
        "lng" : 15.9388875
    },
    {
        "city" : "Olbia",
        "country" : "Italy",
        "countryCode" : "it",
        "region" : "Sardinia",
        "timezone" : "Europe/Rome",
        "lat" : 40.9235764,
        "lng" : 9.4964429
    },
    {
        "city" : "Orbetello",
        "country" : "Italy",
        "countryCode" : "it",
        "region" : "Tuscany",
        "timezone" : "Europe/Rome",
        "lat" : 42.4396474,
        "lng" : 11.2124083
    },
    {
        "city" : "Orosei",
        "country" : "Italy",
        "countryCode" : "it",
        "region" : "Sardinia",
        "timezone" : "Europe/Rome",
        "lat" : 40.3983472,
        "lng" : 9.7121206
    },
    {
        "city" : "Otranto",
        "country" : "Italy",
        "countryCode" : "it",
        "region" : "Puglia",
        "timezone" : "Europe/Rome",
        "lat" : 40.1438978,
        "lng" : 18.4911678
    },
    {
        "city" : "Palermo",
        "country" : "Italy",
        "countryCode" : "it",
        "region" : "Sicily",
        "timezone" : "Europe/Rome",
        "lat" : 38.1156879,
        "lng" : 13.3612671
    },
    {
        "city" : "Palmi",
        "country" : "Italy",
        "countryCode" : "it",
        "region" : "Calabria",
        "timezone" : "Europe/Rome",
        "lat" : 38.3853062,
        "lng" : 15.8877494
    },
    {
        "city" : "Pantelleria",
        "country" : "Italy",
        "countryCode" : "it",
        "region" : "Sicily",
        "timezone" : "Europe/Rome",
        "lat" : 36.785262,
        "lng" : 11.9918779
    },
    {
        "city" : "Paola",
        "country" : "Italy",
        "countryCode" : "it",
        "region" : "Calabria",
        "timezone" : "Europe/Rome",
        "lat" : 39.3602395,
        "lng" : 16.0407728
    },
    {
        "city" : "Patti",
        "country" : "Italy",
        "countryCode" : "it",
        "region" : "Sicily",
        "timezone" : "Europe/Rome",
        "lat" : 38.1386229,
        "lng" : 14.966624
    },
    {
        "city" : "Pesaro",
        "country" : "Italy",
        "countryCode" : "it",
        "region" : "Marche",
        "timezone" : "Europe/Rome",
        "lat" : 43.9124756,
        "lng" : 12.9155494
    },
    {
        "city" : "Pescara",
        "country" : "Italy",
        "countryCode" : "it",
        "region" : "Abruzzo",
        "timezone" : "Europe/Rome",
        "lat" : 42.4617902,
        "lng" : 14.2160898
    },
    {
        "city" : "Petrosino",
        "country" : "Italy",
        "countryCode" : "it",
        "region" : "Sicily",
        "timezone" : "Europe/Rome",
        "lat" : 37.7002587,
        "lng" : 12.5183307
    },
    {
        "city" : "Pietrasanta",
        "country" : "Italy",
        "countryCode" : "it",
        "region" : "Tuscany",
        "timezone" : "Europe/Rome",
        "lat" : 43.9595513,
        "lng" : 10.2286323
    },
    {
        "city" : "Pineto",
        "country" : "Italy",
        "countryCode" : "it",
        "region" : "Abruzzo",
        "timezone" : "Europe/Rome",
        "lat" : 42.6076493,
        "lng" : 14.0676742
    },
    {
        "city" : "Pinocchio di Ancona",
        "country" : "Italy",
        "countryCode" : "it",
        "region" : "Marche",
        "timezone" : "Europe/Rome",
        "lat" : 43.6158299,
        "lng" : 13.518915
    },
    {
        "city" : "Piombino",
        "country" : "Italy",
        "countryCode" : "it",
        "region" : "Tuscany",
        "timezone" : "Europe/Rome",
        "lat" : 42.9256335,
        "lng" : 10.5258891
    },
    {
        "city" : "Pizzo",
        "country" : "Italy",
        "countryCode" : "it",
        "region" : "Calabria",
        "timezone" : "Europe/Rome",
        "lat" : 38.7560905,
        "lng" : 16.199266
    },
    {
        "city" : "Policoro",
        "country" : "Italy",
        "countryCode" : "it",
        "region" : "Basilicata",
        "timezone" : "Europe/Rome",
        "lat" : 40.2141054,
        "lng" : 16.6796558
    },
    {
        "city" : "Pontecagnano",
        "country" : "Italy",
        "countryCode" : "it",
        "region" : "Campania",
        "timezone" : "Europe/Rome",
        "lat" : 40.6230286,
        "lng" : 14.8804893
    },
    {
        "city" : "Portici",
        "country" : "Italy",
        "countryCode" : "it",
        "region" : "Campania",
        "timezone" : "Europe/Rome",
        "lat" : 40.8141218,
        "lng" : 14.339067
    },
    {
        "city" : "Porto Empedocle",
        "country" : "Italy",
        "countryCode" : "it",
        "region" : "Sicily",
        "timezone" : "Europe/Rome",
        "lat" : 37.2881801,
        "lng" : 13.5271724
    },
    {
        "city" : "Porto Recanati",
        "country" : "Italy",
        "countryCode" : "it",
        "region" : "Marche",
        "timezone" : "Europe/Rome",
        "lat" : 43.4320959,
        "lng" : 13.6641282
    },
    {
        "city" : "Porto Torres",
        "country" : "Italy",
        "countryCode" : "it",
        "region" : "Sardinia",
        "timezone" : "Europe/Rome",
        "lat" : 40.8333682,
        "lng" : 8.4022929
    },
    {
        "city" : "Portoferraio",
        "country" : "Italy",
        "countryCode" : "it",
        "region" : "Tuscany",
        "timezone" : "Europe/Rome",
        "lat" : 42.8108565,
        "lng" : 10.3211801
    },
    {
        "city" : "Portoscuso",
        "country" : "Italy",
        "countryCode" : "it",
        "region" : "Sardinia",
        "timezone" : "Europe/Rome",
        "lat" : 39.2066208,
        "lng" : 8.3791741
    },
    {
        "city" : "Pozzallo",
        "country" : "Italy",
        "countryCode" : "it",
        "region" : "Sicily",
        "timezone" : "Europe/Rome",
        "lat" : 36.7298607,
        "lng" : 14.8491127
    },
    {
        "city" : "Pozzuoli",
        "country" : "Italy",
        "countryCode" : "it",
        "region" : "Campania",
        "timezone" : "Europe/Rome",
        "lat" : 40.8459469,
        "lng" : 14.0932861
    },
    {
        "city" : "Priolo Gargallo",
        "country" : "Italy",
        "countryCode" : "it",
        "region" : "Sicily",
        "timezone" : "Europe/Rome",
        "lat" : 37.1578584,
        "lng" : 15.1837006
    },
    {
        "city" : "Procida",
        "country" : "Italy",
        "countryCode" : "it",
        "region" : "Campania",
        "timezone" : "Europe/Rome",
        "lat" : 40.7578412,
        "lng" : 14.0150996
    },
    {
        "city" : "Pula",
        "country" : "Italy",
        "countryCode" : "it",
        "region" : "Sardinia",
        "timezone" : "Europe/Rome",
        "lat" : 39.0129845,
        "lng" : 9.0013997
    },
    {
        "city" : "Pulsano",
        "country" : "Italy",
        "countryCode" : "it",
        "region" : "Puglia",
        "timezone" : "Europe/Rome",
        "lat" : 40.3845816,
        "lng" : 17.3546596
    },
    {
        "city" : "Recco",
        "country" : "Italy",
        "countryCode" : "it",
        "region" : "Liguria",
        "timezone" : "Europe/Rome",
        "lat" : 44.3614219,
        "lng" : 9.1437445
    },
    {
        "city" : "Rimini",
        "country" : "Italy",
        "countryCode" : "it",
        "region" : "Emilia-Romagna",
        "timezone" : "Europe/Rome",
        "lat" : 44.0678288,
        "lng" : 12.5695158
    },
    {
        "city" : "Roccella Ionica",
        "country" : "Italy",
        "countryCode" : "it",
        "region" : "Calabria",
        "timezone" : "Europe/Rome",
        "lat" : 38.3268494,
        "lng" : 16.4057429
    },
    {
        "city" : "Arklow",
        "country" : "Ireland",
        "countryCode" : "ie",
        "region" : "County Wicklow",
        "timezone" : "Europe/Dublin",
        "lat" : 52.7976935,
        "lng" : -6.1599293
    },
    {
        "city" : "Balbriggan",
        "country" : "Ireland",
        "countryCode" : "ie",
        "region" : "County Dublin",
        "timezone" : "Europe/Dublin",
        "lat" : 53.6083194,
        "lng" : -6.1820798
    },
    {
        "city" : "Bray",
        "country" : "Ireland",
        "countryCode" : "ie",
        "region" : "County Wicklow",
        "timezone" : "Europe/Dublin",
        "lat" : 53.200903,
        "lng" : -6.1110741
    },
    {
        "city" : "Carrigaline",
        "country" : "Ireland",
        "countryCode" : "ie",
        "region" : "County Cork",
        "timezone" : "Europe/Dublin",
        "lat" : 51.817905,
        "lng" : -8.3914957
    },
    {
        "city" : "Cobh",
        "country" : "Ireland",
        "countryCode" : "ie",
        "region" : "County Cork",
        "timezone" : "Europe/Dublin",
        "lat" : 51.8503357,
        "lng" : -8.2942858
    },
    {
        "city" : "Cork",
        "country" : "Ireland",
        "countryCode" : "ie",
        "region" : "County Cork",
        "timezone" : "Europe/Dublin",
        "lat" : 51.8968917,
        "lng" : -8.4863157
    },
    {
        "city" : "Drogheda",
        "country" : "Ireland",
        "countryCode" : "ie",
        "region" : "County Louth",
        "timezone" : "Europe/Dublin",
        "lat" : 53.717856,
        "lng" : -6.3560985
    },
    {
        "city" : "Dublin",
        "country" : "Ireland",
        "countryCode" : "ie",
        "region" : "County Dublin",
        "timezone" : "Europe/Dublin",
        "lat" : 53.3498053,
        "lng" : -6.2603097
    },
    {
        "city" : "Dungarvan",
        "country" : "Ireland",
        "countryCode" : "ie",
        "region" : "County Waterford",
        "timezone" : "Europe/Dublin",
        "lat" : 52.0936763,
        "lng" : -7.6203627
    },
    {
        "city" : "Galway",
        "country" : "Ireland",
        "countryCode" : "ie",
        "region" : "County Galway",
        "timezone" : "Europe/Dublin",
        "lat" : 53.270668,
        "lng" : -9.0567905
    },
    {
        "city" : "Greystones",
        "country" : "Ireland",
        "countryCode" : "ie",
        "region" : "County Wicklow",
        "timezone" : "Europe/Dublin",
        "lat" : 53.1491175,
        "lng" : -6.0793414
    },
    {
        "city" : "Laytown",
        "country" : "Ireland",
        "countryCode" : "ie",
        "region" : "County Meath",
        "timezone" : "Europe/Dublin",
        "lat" : 53.6806301,
        "lng" : -6.2374498
    },
    {
        "city" : "Malahide",
        "country" : "Ireland",
        "countryCode" : "ie",
        "region" : "County Dublin",
        "timezone" : "Europe/Dublin",
        "lat" : 53.4509236,
        "lng" : -6.1501378
    },
    {
        "city" : "Na Sceiri",
        "country" : "Ireland",
        "countryCode" : "ie",
        "region" : "County Dublin",
        "timezone" : "Europe/Dublin",
        "lat" : 53.5805519,
        "lng" : -6.1078779
    },
    {
        "city" : "Rush",
        "country" : "Ireland",
        "countryCode" : "ie",
        "region" : "County Dublin",
        "timezone" : "Europe/Dublin",
        "lat" : 53.5256684,
        "lng" : -6.0911586
    },
    {
        "city" : "Shannon",
        "country" : "Ireland",
        "countryCode" : "ie",
        "region" : "County Clare",
        "timezone" : "Europe/Dublin",
        "lat" : 52.7124708,
        "lng" : -8.8730677
    },
    {
        "city" : "Sord",
        "country" : "Ireland",
        "countryCode" : "ie",
        "region" : "County Dublin",
        "timezone" : "Europe/Dublin",
        "lat" : 53.4557467,
        "lng" : -6.2197406
    },
    {
        "city" : "Tra Li",
        "country" : "Ireland",
        "countryCode" : "ie",
        "region" : "County Kerry",
        "timezone" : "Europe/Dublin",
        "lat" : 52.2713096,
        "lng" : -9.6999325
    },
    {
        "city" : "Tra Mhor",
        "country" : "Ireland",
        "countryCode" : "ie",
        "region" : "County Waterford",
        "timezone" : "Europe/Dublin",
        "lat" : 52.1614354,
        "lng" : -7.1492952
    },
    {
        "city" : "Westport",
        "country" : "Ireland",
        "countryCode" : "ie",
        "region" : "County Mayo",
        "timezone" : "Europe/Dublin",
        "lat" : 53.8021307,
        "lng" : -9.5143467
    },
    {
        "city" : "Youghal",
        "country" : "Ireland",
        "countryCode" : "ie",
        "region" : "County Cork",
        "timezone" : "Europe/Dublin",
        "lat" : 51.9542704,
        "lng" : -7.8471707
    },
    {
        "city" : "Rosolina",
        "country" : "Italy",
        "countryCode" : "it",
        "region" : "Veneto",
        "timezone" : "Europe/Rome",
        "lat" : 45.0761113,
        "lng" : 12.2421765
    },
    {
        "city" : "Sabaudia",
        "country" : "Italy",
        "countryCode" : "it",
        "region" : "Lazio",
        "timezone" : "Europe/Rome",
        "lat" : 41.3015823,
        "lng" : 13.0275758
    },
    {
        "city" : "Salerno",
        "country" : "Italy",
        "countryCode" : "it",
        "region" : "Campania",
        "timezone" : "Europe/Rome",
        "lat" : 40.6824408,
        "lng" : 14.7680961
    },
    {
        "city" : "San Lucido",
        "country" : "Italy",
        "countryCode" : "it",
        "region" : "Calabria",
        "timezone" : "Europe/Rome",
        "lat" : 39.3074486,
        "lng" : 16.0497621
    },
    {
        "city" : "San Remo",
        "country" : "Italy",
        "countryCode" : "it",
        "region" : "Liguria",
        "timezone" : "Europe/Rome",
        "lat" : 43.8159671,
        "lng" : 7.7760567
    },
    {
        "city" : "San Salvo",
        "country" : "Italy",
        "countryCode" : "it",
        "region" : "Abruzzo",
        "timezone" : "Europe/Rome",
        "lat" : 42.0440032,
        "lng" : 14.7339367
    },
    {
        "city" : "San Vincenzo",
        "country" : "Italy",
        "countryCode" : "it",
        "region" : "Tuscany",
        "timezone" : "Europe/Rome",
        "lat" : 43.0772066,
        "lng" : 10.5577407
    },
    {
        "city" : "Sant'Antioco",
        "country" : "Italy",
        "countryCode" : "it",
        "region" : "Sardinia",
        "timezone" : "Europe/Rome",
        "lat" : 39.0373917,
        "lng" : 8.4184224
    },
    {
        "city" : "Santa Marinella",
        "country" : "Italy",
        "countryCode" : "it",
        "region" : "Lazio",
        "timezone" : "Europe/Rome",
        "lat" : 42.0584662,
        "lng" : 11.900579
    },
    {
        "city" : "Sapri",
        "country" : "Italy",
        "countryCode" : "it",
        "region" : "Campania",
        "timezone" : "Europe/Rome",
        "lat" : 40.0732469,
        "lng" : 15.6290106
    },
    {
        "city" : "Sarroch",
        "country" : "Italy",
        "countryCode" : "it",
        "region" : "Sardinia",
        "timezone" : "Europe/Rome",
        "lat" : 39.0654974,
        "lng" : 9.0108377
    },
    {
        "city" : "Savona",
        "country" : "Italy",
        "countryCode" : "it",
        "region" : "Liguria",
        "timezone" : "Europe/Rome",
        "lat" : 44.298387,
        "lng" : 8.4645331
    },
    {
        "city" : "Scalea",
        "country" : "Italy",
        "countryCode" : "it",
        "region" : "Calabria",
        "timezone" : "Europe/Rome",
        "lat" : 39.8141152,
        "lng" : 15.7912677
    },
    {
        "city" : "Sciacca",
        "country" : "Italy",
        "countryCode" : "it",
        "region" : "Sicily",
        "timezone" : "Europe/Rome",
        "lat" : 37.5085148,
        "lng" : 13.0816305
    },
    {
        "city" : "Scilla",
        "country" : "Italy",
        "countryCode" : "it",
        "region" : "Calabria",
        "timezone" : "Europe/Rome",
        "lat" : 38.2512005,
        "lng" : 15.7180247
    },
    {
        "city" : "Sellia Marina",
        "country" : "Italy",
        "countryCode" : "it",
        "region" : "Calabria",
        "timezone" : "Europe/Rome",
        "lat" : 38.9119353,
        "lng" : 16.7411559
    },
    {
        "city" : "Sestri Levante",
        "country" : "Italy",
        "countryCode" : "it",
        "region" : "Liguria",
        "timezone" : "Europe/Rome",
        "lat" : 44.2763654,
        "lng" : 9.4008281
    },
    {
        "city" : "Siderno Marina",
        "country" : "Italy",
        "countryCode" : "it",
        "region" : null,
        "timezone" : "Europe/Rome",
        "lat" : 38.2690769,
        "lng" : 16.2984828
    },
    {
        "city" : "Silvi Paese",
        "country" : "Italy",
        "countryCode" : "it",
        "region" : "Abruzzo",
        "timezone" : "Europe/Rome",
        "lat" : 42.5435931,
        "lng" : 14.1262485
    },
    {
        "city" : "Sorrento",
        "country" : "Italy",
        "countryCode" : "it",
        "region" : "Campania",
        "timezone" : "Europe/Rome",
        "lat" : 40.6262925,
        "lng" : 14.3757985
    },
    {
        "city" : "Sorso",
        "country" : "Italy",
        "countryCode" : "it",
        "region" : "Sardinia",
        "timezone" : "Europe/Rome",
        "lat" : 40.7968026,
        "lng" : 8.5750336
    },
    {
        "city" : "Soverato Marina",
        "country" : "Italy",
        "countryCode" : "it",
        "region" : "Calabria",
        "timezone" : "Europe/Rome",
        "lat" : 38.687333,
        "lng" : 16.5500558
    },
    {
        "city" : "Spadafora",
        "country" : "Italy",
        "countryCode" : "it",
        "region" : "Sicilia",
        "timezone" : "Europe/Rome",
        "lat" : 38.2227337,
        "lng" : 15.3793585
    },
    {
        "city" : "Taggia",
        "country" : "Italy",
        "countryCode" : "it",
        "region" : "Liguria",
        "timezone" : "Europe/Rome",
        "lat" : 43.8621898,
        "lng" : 7.8539797
    },
    {
        "city" : "Taormina",
        "country" : "Italy",
        "countryCode" : "it",
        "region" : "Sicily",
        "timezone" : "Europe/Rome",
        "lat" : 37.8516366,
        "lng" : 15.2853127
    },
    {
        "city" : "Termoli",
        "country" : "Italy",
        "countryCode" : "it",
        "region" : "Molise",
        "timezone" : "Europe/Rome",
        "lat" : 42.0005331,
        "lng" : 14.9952839
    },
    {
        "city" : "Terracina",
        "country" : "Italy",
        "countryCode" : "it",
        "region" : "Lazio",
        "timezone" : "Europe/Rome",
        "lat" : 41.2963728,
        "lng" : 13.2332657
    },
    {
        "city" : "Torregrotta",
        "country" : "Italy",
        "countryCode" : "it",
        "region" : "Sicilia",
        "timezone" : "Europe/Rome",
        "lat" : 38.1907143,
        "lng" : 15.3523175
    },
    {
        "city" : "Tortoli",
        "country" : "Italy",
        "countryCode" : "it",
        "region" : "Sardegna",
        "timezone" : "Europe/Rome",
        "lat" : 39.9265743,
        "lng" : 9.6560733
    },
    {
        "city" : "Trabia",
        "country" : "Italy",
        "countryCode" : "it",
        "region" : "Sicilia",
        "timezone" : "Europe/Rome",
        "lat" : 38.0006815,
        "lng" : 13.6461308
    },
    {
        "city" : "Trani",
        "country" : "Italy",
        "countryCode" : "it",
        "region" : "Apulia",
        "timezone" : "Europe/Rome",
        "lat" : 41.2774857,
        "lng" : 16.4178334
    },
    {
        "city" : "Trapani",
        "country" : "Italy",
        "countryCode" : "it",
        "region" : "Sicily",
        "timezone" : "Europe/Rome",
        "lat" : 38.0176177,
        "lng" : 12.537202
    },
    {
        "city" : "Trebisacce",
        "country" : "Italy",
        "countryCode" : "it",
        "region" : "Calabria",
        "timezone" : "Europe/Rome",
        "lat" : 39.8669601,
        "lng" : 16.5316908
    },
    {
        "city" : "Tricase",
        "country" : "Italy",
        "countryCode" : "it",
        "region" : "Puglia",
        "timezone" : "Europe/Rome",
        "lat" : 39.9302065,
        "lng" : 18.3584374
    },
    {
        "city" : "Triggiano",
        "country" : "Italy",
        "countryCode" : "it",
        "region" : "Puglia",
        "timezone" : "Europe/Rome",
        "lat" : 41.0621627,
        "lng" : 16.926017
    },
    {
        "city" : "Tropea",
        "country" : "Italy",
        "countryCode" : "it",
        "region" : "Calabria",
        "timezone" : "Europe/Rome",
        "lat" : 38.6769938,
        "lng" : 15.8972233
    },
    {
        "city" : "Vado Ligure",
        "country" : "Italy",
        "countryCode" : "it",
        "region" : "Liguria",
        "timezone" : "Europe/Rome",
        "lat" : 44.2647844,
        "lng" : 8.432131
    },
    {
        "city" : "Varazze",
        "country" : "Italy",
        "countryCode" : "it",
        "region" : "Liguria",
        "timezone" : "Europe/Rome",
        "lat" : 44.3594336,
        "lng" : 8.5773126
    },
    {
        "city" : "Venice",
        "country" : "Italy",
        "countryCode" : "it",
        "region" : "Veneto",
        "timezone" : "Europe/Rome",
        "lat" : 45.4408474,
        "lng" : 12.3155151
    },
    {
        "city" : "Ventimiglia",
        "country" : "Italy",
        "countryCode" : "it",
        "region" : "Liguria",
        "timezone" : "Europe/Rome",
        "lat" : 43.7912366,
        "lng" : 7.6075864
    },
    {
        "city" : "Viareggio",
        "country" : "Italy",
        "countryCode" : "it",
        "region" : "Tuscany",
        "timezone" : "Europe/Rome",
        "lat" : 43.8657267,
        "lng" : 10.2513103
    },
    {
        "city" : "Vico Equense",
        "country" : "Italy",
        "countryCode" : "it",
        "region" : "Campania",
        "timezone" : "Europe/Rome",
        "lat" : 40.6614983,
        "lng" : 14.4275013
    },
    {
        "city" : "Vieste",
        "country" : "Italy",
        "countryCode" : "it",
        "region" : "Apulia",
        "timezone" : "Europe/Rome",
        "lat" : 41.8824764,
        "lng" : 16.1767489
    },
    {
        "city" : "Villabate",
        "country" : "Italy",
        "countryCode" : "it",
        "region" : "Sicilia",
        "timezone" : "Europe/Rome",
        "lat" : 38.0756559,
        "lng" : 13.4434068
    },
    {
        "city" : "Bushehr",
        "country" : "Iran",
        "countryCode" : "ir",
        "region" : "Bushehr Province",
        "timezone" : "Asia/Tehran",
        "lat" : 28.9233837,
        "lng" : 50.820314
    },
    {
        "city" : "Khowr e Musa",
        "country" : "Iran",
        "countryCode" : "ir",
        "region" : null,
        "timezone" : "Asia/Tehran",
        "lat" : 30.0361111,
        "lng" : 49.0166667
    },
    {
        "city" : "Qeshm",
        "country" : "Iran",
        "countryCode" : "ir",
        "region" : null,
        "timezone" : "Asia/Tehran",
        "lat" : 26.8118673,
        "lng" : 55.8913207
    },
    {
        "city" : "Gazi",
        "country" : "Kenya",
        "countryCode" : "ke",
        "region" : "Kwale County",
        "timezone" : "Africa/Nairobi",
        "lat" : -4.4244002,
        "lng" : 39.5064905
    },
    {
        "city" : "Kilifi",
        "country" : "Kenya",
        "countryCode" : "ke",
        "region" : "Kilifi County",
        "timezone" : "Africa/Nairobi",
        "lat" : -3.5106508,
        "lng" : 39.9093269
    },
    {
        "city" : "Lamu",
        "country" : "Kenya",
        "countryCode" : "ke",
        "region" : "Lamu County",
        "timezone" : "Africa/Nairobi",
        "lat" : -2.2695575,
        "lng" : 40.9006408
    },
    {
        "city" : "Malindi",
        "country" : "Kenya",
        "countryCode" : "ke",
        "region" : "Kilifi County",
        "timezone" : "Africa/Nairobi",
        "lat" : -3.2191864,
        "lng" : 40.1168906
    },
    {
        "city" : "Takaungu",
        "country" : "Kenya",
        "countryCode" : "ke",
        "region" : "Kilifi County",
        "timezone" : "Africa/Nairobi",
        "lat" : -3.6825305,
        "lng" : 39.8553399
    },
    {
        "city" : "Ad Dasmah",
        "country" : "Kuwait",
        "countryCode" : "kw",
        "region" : "Al Asimah Governate",
        "timezone" : "Asia/Kuwait",
        "lat" : 29.3664336,
        "lng" : 48.000698
    },
    {
        "city" : "Az Zawr",
        "country" : "Kuwait",
        "countryCode" : "kw",
        "region" : "Al Asimah Governate",
        "timezone" : "Asia/Kuwait",
        "lat" : 29.4374631,
        "lng" : 48.2816655
    },
    {
        "city" : "Mina Su`ud",
        "country" : "Kuwait",
        "countryCode" : "kw",
        "region" : null,
        "timezone" : "Asia/Kuwait",
        "lat" : 29.3611312,
        "lng" : 47.9671735
    },
    {
        "city" : "Salmiya",
        "country" : "Kuwait",
        "countryCode" : "kw",
        "region" : "Hawalli Governorate",
        "timezone" : "Asia/Kuwait",
        "lat" : 29.3352938,
        "lng" : 48.0715612
    },
    {
        "city" : "Salwa",
        "country" : "Kuwait",
        "countryCode" : "kw",
        "region" : "Hawalli Governorate",
        "timezone" : "Asia/Kuwait",
        "lat" : 29.2964866,
        "lng" : 48.079379
    },
    {
        "city" : "Chongjin",
        "country" : "North Korea",
        "countryCode" : "kp",
        "region" : "North Hamgyong",
        "timezone" : "Asia/Pyongyang",
        "lat" : 41.7669671,
        "lng" : 129.723402
    },
    {
        "city" : "Hoemul-li",
        "country" : "North Korea",
        "countryCode" : "kp",
        "region" : null,
        "timezone" : "Asia/Pyongyang",
        "lat" : 40.339852,
        "lng" : 127.510093
    },